$GPGGA,074814.000,3351.9167,S,15112.5543,E,1,09,1.0,50.0,M,0.0,M,,*4E
$GPGSV,3,1,09,01,16,263,17,02,62,207,45,03,45,274,38,04,15,290,38*7F
$GPGSV,3,2,09,05,31,324,44,06,72,044,37,07,40,061,34,08,73,055,31*79
$GPGSV,3,3,09,09,68,238,35,,,,,,,,,,,,*48
$GPRMC,074814.000,A,3351.9167,S,15112.5543,E,0.00,0.0,031225,,,A*46
$GPGGA,074816.000,3351.9391,S,15112.5946,E,1,12,1.0,50.0,M,0.0,M,,*44
$GPGSV,3,1,12,01,79,145,31,02,25,303,32,03,53,032,48,04,64,016,43*7F
$GPGSV,3,2,12,05,16,231,43,06,63,191,44,07,47,242,43,08,38,251,31*74
$GPGSV,3,3,12,09,76,078,49,10,78,058,10,11,19,334,46,12,16,154,32*79
$GPRMC,074816.000,A,3351.9391,S,15112.5946,E,0.00,0.0,031225,,,A*46
$GPGGA,074818.000,3351.8605,S,15112.6394,E,1,11,1.0,50.0,M,0.0,M,,*46
$GPGSV,3,1,11,01,54,346,40,02,55,187,50,03,69,126,34,04,27,111,47*7A
$GPGSV,3,2,11,05,67,104,50,06,54,359,43,07,79,286,42,08,40,151,38*72
$GPGSV,3,3,11,09,25,270,31,10,60,212,11,11,16,290,30,,,,*49
$GPRMC,074818.000,A,3351.8605,S,15112.6394,E,0.00,0.0,031225,,,A*47
$GPGGA,074820.000,3351.9378,S,15112.5834,E,1,10,1.0,50.0,M,0.0,M,,*40
$GPGSV,3,1,10,01,42,005,48,02,66,285,32,03,53,161,13,04,68,205,43*73
$GPGSV,3,2,10,05,27,114,42,06,51,319,30,07,18,070,48,08,14,171,37*7A
$GPGSV,3,3,10,09,65,288,36,10,29,277,47,,,,,,,,*7E
$GPRMC,074820.000,A,3351.9378,S,15112.5834,E,0.00,0.0,031225,,,A*40
$GPGGA,074822.000,3351.8671,S,15112.6229,E,1,09,1.0,50.0,M,0.0,M,,*42
$GPGSV,3,1,09,01,70,354,43,02,43,180,49,03,43,275,33,04,34,157,50*71
$GPGSV,3,2,09,05,27,054,42,06,64,314,50,07,51,154,41,08,28,246,41*70
$GPGSV,3,3,09,09,46,230,46,,,,,,,,,,,,*48
$GPRMC,074822.000,A,3351.8671,S,15112.6229,E,0.00,0.0,031225,,,A*4A
$GPGGA,074824.000,3351.9042,S,15112.5917,E,1,11,1.0,50.0,M,0.0,M,,*4F
$GPGSV,3,1,11,01,13,148,50,02,22,188,32,03,26,153,46,04,22,263,30*70
$GPGSV,3,2,11,05,77,138,44,06,12,078,32,07,58,066,12,08,79,064,40*75
$GPGSV,3,3,11,09,47,274,31,10,59,328,30,11,33,064,50,,,,*40
$GPRMC,074824.000,A,3351.9042,S,15112.5917,E,0.00,0.0,031225,,,A*4E
$GPGGA,074826.000,3351.8894,S,15112.6042,E,1,11,1.0,50.0,M,0.0,M,,*45
$GPGSV,3,1,11,01,77,161,46,02,57,017,38,03,42,274,43,04,60,032,49*7E
$GPGSV,3,2,11,05,28,111,42,06,41,020,42,07,68,082,30,08,34,072,35*7B
$GPGSV,3,3,11,09,67,343,17,10,57,002,45,11,42,179,40,,,,*4E
$GPRMC,074826.000,A,3351.8894,S,15112.6042,E,0.00,0.0,031225,,,A*44
$GPGGA,074828.000,3351.9303,S,15112.5606,E,1,10,1.0,50.0,M,0.0,M,,*4B
$GPGSV,3,1,10,01,73,077,48,02,59,149,36,03,27,251,34,04,60,211,37*77
$GPGSV,3,2,10,05,42,250,50,06,14,074,33,07,12,059,30,08,27,014,31*79
$GPGSV,3,3,10,09,41,237,32,10,64,333,44,,,,,,,,*73
$GPRMC,074828.000,A,3351.9303,S,15112.5606,E,0.00,0.0,031225,,,A*4B
$GPGGA,074830.000,3351.8846,S,15112.6495,E,1,09,1.0,50.0,M,0.0,M,,*4A
$GPGSV,3,1,09,01,56,304,43,02,52,054,30,03,68,027,42,04,48,146,19*7A
$GPGSV,3,2,09,05,78,324,47,06,65,289,36,07,21,177,43,08,43,046,33*71
$GPGSV,3,3,09,09,35,003,38,,,,,,,,,,,,*47
$GPRMC,074830.000,A,3351.8846,S,15112.6495,E,0.00,0.0,031225,,,A*42
$GPGGA,074832.000,3351.8606,S,15112.6435,E,1,09,1.0,50.0,M,0.0,M,,*48
$GPGSV,3,1,09,01,43,287,45,02,63,284,47,03,55,094,33,04,15,133,43*7A
$GPGSV,3,2,09,05,73,066,38,06,51,306,40,07,49,320,35,08,46,323,42*7B
$GPGSV,3,3,09,09,28,147,47,,,,,,,,,,,,*42
$GPRMC,074832.000,A,3351.8606,S,15112.6435,E,0.00,0.0,031225,,,A*40
$GPGGA,074834.000,3351.9392,S,15112.6015,E,1,14,1.0,50.0,M,0.0,M,,*4D
$GPGSV,4,1,14,01,46,120,41,02,57,172,43,03,20,104,49,04,22,238,34*7C
$GPGSV,4,2,14,05,47,214,48,06,29,279,36,07,57,223,31,08,34,169,46*74
$GPGSV,4,3,14,09,21,298,30,10,42,026,15,11,52,062,39,12,17,148,11*77
$GPGSV,4,4,14,13,11,074,49,14,19,122,32,,,,,,,,*7D
$GPRMC,074834.000,A,3351.9392,S,15112.6015,E,0.00,0.0,031225,,,A*49
$GPGGA,074836.000,3351.8976,S,15112.6247,E,1,12,1.0,50.0,M,0.0,M,,*4D
$GPGSV,3,1,12,01,20,022,49,02,50,102,46,03,47,138,41,04,65,103,50*7F
$GPGSV,3,2,12,05,74,115,39,06,34,266,35,07,41,261,33,08,43,159,49*7F
$GPGSV,3,3,12,09,32,047,37,10,73,282,36,11,77,141,49,12,28,185,16*76
$GPRMC,074836.000,A,3351.8976,S,15112.6247,E,0.00,0.0,031225,,,A*4F
$GPGGA,074838.000,3351.9350,S,15112.6497,E,1,11,1.0,50.0,M,0.0,M,,*44
$GPGSV,3,1,11,01,72,083,44,02,29,099,37,03,32,343,20,04,47,218,30*72
$GPGSV,3,2,11,05,33,027,18,06,26,248,42,07,10,313,36,08,14,086,30*79
$GPGSV,3,3,11,09,43,020,39,10,35,152,43,11,14,202,44,,,,*4C
$GPRMC,074838.000,A,3351.9350,S,15112.6497,E,0.00,0.0,031225,,,A*45
$GPGGA,074840.000,3351.8651,S,15112.6329,E,1,10,1.0,50.0,M,0.0,M,,*4D
$GPGSV,3,1,10,01,16,130,40,02,75,337,35,03,79,008,44,04,62,033,38*75
$GPGSV,3,2,10,05,63,230,42,06,43,001,42,07,14,353,50,08,27,150,31*71
$GPGSV,3,3,10,09,53,034,44,10,15,156,17,,,,,,,,*71
$GPRMC,074840.000,A,3351.8651,S,15112.6329,E,0.00,0.0,031225,,,A*4D
$GPGGA,074842.000,3351.8952,S,15112.6493,E,1,10,1.0,50.0,M,0.0,M,,*45
$GPGSV,3,1,10,01,80,086,32,02,58,146,33,03,33,114,42,04,76,089,36*70
$GPGSV,3,2,10,05,32,118,45,06,22,096,13,07,48,119,31,08,29,051,33*78
$GPGSV,3,3,10,09,41,280,11,10,24,001,45,,,,,,,,*79
$GPRMC,074842.000,A,3351.8952,S,15112.6493,E,0.00,0.0,031225,,,A*45
$GPGGA,074844.000,3351.9637,S,15112.5670,E,1,09,1.0,50.0,M,0.0,M,,*4A
$GPGSV,3,1,09,01,70,123,32,02,25,005,39,03,14,321,47,04,57,171,49*76
$GPGSV,3,2,09,05,74,218,47,06,48,352,46,07,73,337,42,08,13,034,42*7A
$GPGSV,3,3,09,09,15,292,33,,,,,,,,,,,,*44
$GPRMC,074844.000,A,3351.9637,S,15112.5670,E,0.00,0.0,031225,,,A*42
$GPGGA,074846.000,3351.8904,S,15112.5961,E,1,13,1.0,50.0,M,0.0,M,,*42
$GPGSV,4,1,13,01,70,257,38,02,22,146,40,03,49,275,43,04,28,010,43*77
$GPGSV,4,2,13,05,32,139,39,06,75,018,32,07,10,343,37,08,64,268,46*76
$GPGSV,4,3,13,09,37,164,40,10,37,255,39,11,43,296,10,12,20,001,38*7B
$GPGSV,4,4,13,13,20,005,31,,,,,,,,,,,,*4C
$GPRMC,074846.000,A,3351.8904,S,15112.5961,E,0.00,0.0,031225,,,A*41
$GPGGA,074848.000,3351.9534,S,15112.6281,E,1,09,1.0,50.0,M,0.0,M,,*4F
$GPGSV,3,1,09,01,30,236,43,02,19,294,31,03,20,328,31,04,63,138,40*72
$GPGSV,3,2,09,05,14,197,35,06,61,053,41,07,41,106,38,08,73,104,31*7F
$GPGSV,3,3,09,09,71,226,39,,,,,,,,,,,,*43
$GPRMC,074848.000,A,3351.9534,S,15112.6281,E,0.00,0.0,031225,,,A*47
$GPGGA,074850.000,3351.9616,S,15112.6540,E,1,12,1.0,50.0,M,0.0,M,,*45
$GPGSV,3,1,12,01,16,000,40,02,47,084,47,03,42,172,50,04,75,116,41*75
$GPGSV,3,2,12,05,61,293,35,06,71,147,10,07,21,102,45,08,48,203,44*77
$GPGSV,3,3,12,09,10,197,49,10,49,219,42,11,79,192,38,12,55,258,35*75
$GPRMC,074850.000,A,3351.9616,S,15112.6540,E,0.00,0.0,031225,,,A*47
$GPGGA,074852.000,3351.8805,S,15112.5733,E,1,08,1.0,50.0,M,0.0,M,,*44
$GPGSV,2,1,08,01,42,160,34,02,19,158,13,03,30,173,41,04,19,107,46*79
$GPGSV,2,2,08,05,11,340,44,06,48,060,17,07,61,356,33,08,71,235,48*7F
$GPRMC,074852.000,A,3351.8805,S,15112.5733,E,0.00,0.0,031225,,,A*4D
$GPGGA,074854.000,3351.9624,S,15112.6170,E,1,14,1.0,50.0,M,0.0,M,,*41
$GPGSV,4,1,14,01,60,055,40,02,56,144,38,03,36,266,49,04,22,356,15*78
$GPGSV,4,2,14,05,35,306,34,06,59,267,34,07,59,151,48,08,14,353,38*74
$GPGSV,4,3,14,09,40,268,44,10,41,091,39,11,40,141,43,12,51,114,38*73
$GPGSV,4,4,14,13,66,132,43,14,70,228,38,,,,,,,,*78
$GPRMC,074854.000,A,3351.9624,S,15112.6170,E,0.00,0.0,031225,,,A*45
$GPGGA,074856.000,3351.9618,S,15112.5787,E,1,14,1.0,50.0,M,0.0,M,,*41
$GPGSV,4,1,14,01,23,161,46,02,17,328,41,03,16,143,47,04,57,107,40*70
$GPGSV,4,2,14,05,72,242,31,06,73,263,41,07,46,228,44,08,58,331,37*71
$GPGSV,4,3,14,09,43,097,37,10,44,066,46,11,11,074,38,12,33,255,42*73
$GPGSV,4,4,14,13,31,200,30,14,55,265,36,,,,,,,,*7C
$GPRMC,074856.000,A,3351.9618,S,15112.5787,E,0.00,0.0,031225,,,A*45
$GPGGA,074858.000,3351.9105,S,15112.6256,E,1,09,1.0,50.0,M,0.0,M,,*42
$GPGSV,3,1,09,01,14,304,48,02,50,152,40,03,39,127,48,04,26,006,48*73
$GPGSV,3,2,09,05,52,007,48,06,31,029,47,07,28,233,17,08,77,215,16*74
$GPGSV,3,3,09,09,12,283,36,,,,,,,,,,,,*46
$GPRMC,074858.000,A,3351.9105,S,15112.6256,E,0.00,0.0,031225,,,A*4A
$GPGGA,074900.000,3351.9230,S,15112.6451,E,1,14,1.0,50.0,M,0.0,M,,*46
$GPGSV,4,1,14,01,49,006,37,02,70,264,41,03,17,186,48,04,66,029,47*7D
$GPGSV,4,2,14,05,26,155,33,06,44,089,39,07,74,246,34,08,80,135,38*78
$GPGSV,4,3,14,09,63,089,32,10,32,182,46,11,49,347,49,12,62,074,41*7F
$GPGSV,4,4,14,13,41,026,45,14,74,048,38,,,,,,,,*7F
$GPRMC,074900.000,A,3351.9230,S,15112.6451,E,0.00,0.0,031225,,,A*42
$GPGGA,074902.000,3351.9494,S,15112.5778,E,1,09,1.0,50.0,M,0.0,M,,*4B
$GPGSV,3,1,09,01,17,226,49,02,65,070,40,03,56,326,41,04,20,036,41*78
$GPGSV,3,2,09,05,28,040,31,06,20,170,11,07,35,217,42,08,43,281,14*78
$GPGSV,3,3,09,09,65,285,30,,,,,,,,,,,,*46
$GPRMC,074902.000,A,3351.9494,S,15112.5778,E,0.00,0.0,031225,,,A*43
$GPGGA,074904.000,3351.8756,S,15112.6514,E,1,13,1.0,50.0,M,0.0,M,,*41
$GPGSV,4,1,13,01,33,107,17,02,23,163,30,03,61,296,38,04,63,234,16*7A
$GPGSV,4,2,13,05,51,311,30,06,62,032,37,07,23,257,44,08,11,332,49*7A
$GPGSV,4,3,13,09,44,139,45,10,63,007,34,11,68,174,46,12,24,219,16*7D
$GPGSV,4,4,13,13,37,146,45,,,,,,,,,,,,*4F
$GPRMC,074904.000,A,3351.8756,S,15112.6514,E,0.00,0.0,031225,,,A*42
$GPGGA,074906.000,3351.9128,S,15112.5561,E,1,14,1.0,50.0,M,0.0,M,,*4B
$GPGSV,4,1,14,01,46,270,49,02,64,162,32,03,44,106,44,04,31,230,14*70
$GPGSV,4,2,14,05,33,175,46,06,14,008,31,07,79,003,50,08,50,168,39*70
$GPGSV,4,3,14,09,23,336,42,10,26,031,46,11,61,250,44,12,19,158,35*77
$GPGSV,4,4,14,13,70,054,35,14,58,261,41,,,,,,,,*76
$GPRMC,074906.000,A,3351.9128,S,15112.5561,E,0.00,0.0,031225,,,A*4F
$GPGGA,074908.000,3351.9212,S,15112.5945,E,1,10,1.0,50.0,M,0.0,M,,*41
$GPGSV,3,1,10,01,73,061,47,02,64,094,37,03,64,178,36,04,71,329,40*76
$GPGSV,3,2,10,05,68,023,44,06,48,070,48,07,11,051,34,08,67,330,39*75
$GPGSV,3,3,10,09,32,077,50,10,55,120,41,,,,,,,,*72
$GPRMC,074908.000,A,3351.9212,S,15112.5945,E,0.00,0.0,031225,,,A*41
$GPGGA,074910.000,3351.9464,S,15112.6311,E,1,11,1.0,50.0,M,0.0,M,,*46
$GPGSV,3,1,11,01,54,014,40,02,14,028,20,03,74,156,45,04,22,236,36*70
$GPGSV,3,2,11,05,40,142,48,06,63,315,14,07,23,335,34,08,27,115,41*7A
$GPGSV,3,3,11,09,19,108,40,10,30,302,36,11,42,105,36,,,,*44
$GPRMC,074910.000,A,3351.9464,S,15112.6311,E,0.00,0.0,031225,,,A*47
$GPGGA,074912.000,3351.8962,S,15112.6193,E,1,11,1.0,50.0,M,0.0,M,,*46
$GPGSV,3,1,11,01,16,238,32,02,52,273,15,03,44,241,49,04,51,182,42*76
$GPGSV,3,2,11,05,36,071,30,06,43,122,17,07,43,082,40,08,62,279,50*70
$GPGSV,3,3,11,09,36,240,38,10,51,304,40,11,17,051,16,,,,*4B
$GPRMC,074912.000,A,3351.8962,S,15112.6193,E,0.00,0.0,031225,,,A*47
$GPGGA,074914.000,3351.9224,S,15112.6526,E,1,14,1.0,50.0,M,0.0,M,,*47
$GPGSV,4,1,14,01,19,200,45,02,44,002,40,03,73,050,40,04,40,100,42*76
$GPGSV,4,2,14,05,10,308,46,06,33,179,48,07,18,124,37,08,30,014,43*76
$GPGSV,4,3,14,09,45,202,31,10,56,067,12,11,55,164,36,12,39,285,49*7C
$GPGSV,4,4,14,13,16,161,48,14,14,082,47,,,,,,,,*7A
$GPRMC,074914.000,A,3351.9224,S,15112.6526,E,0.00,0.0,031225,,,A*43
$GPGGA,074916.000,3351.9105,S,15112.5502,E,1,13,1.0,50.0,M,0.0,M,,*47
$GPGSV,4,1,13,01,52,098,11,02,67,129,33,03,62,146,50,04,31,016,45*71
$GPGSV,4,2,13,05,80,085,50,06,23,187,32,07,39,245,34,08,74,359,46*7F
$GPGSV,4,3,13,09,33,130,36,10,58,069,48,11,59,022,45,12,30,139,44*7B
$GPGSV,4,4,13,13,36,203,43,,,,,,,,,,,,*4A
$GPRMC,074916.000,A,3351.9105,S,15112.5502,E,0.00,0.0,031225,,,A*44
$GPGGA,074918.000,3351.8849,S,15112.6519,E,1,10,1.0,50.0,M,0.0,M,,*43
$GPGSV,3,1,10,01,10,198,48,02,16,354,34,03,49,097,49,04,52,289,45*7A
$GPGSV,3,2,10,05,59,199,30,06,76,254,32,07,67,293,48,08,11,206,46*7B
$GPGSV,3,3,10,09,78,214,48,10,14,100,37,,,,,,,,*74
$GPRMC,074918.000,A,3351.8849,S,15112.6519,E,0.00,0.0,031225,,,A*43
$GPGGA,074920.000,3351.9406,S,15112.5460,E,1,10,1.0,50.0,M,0.0,M,,*42
$GPGSV,3,1,10,01,13,028,30,02,36,300,37,03,61,136,49,04,80,160,35*70
$GPGSV,3,2,10,05,28,120,38,06,76,024,40,07,40,357,30,08,28,035,34*79
$GPGSV,3,3,10,09,47,153,49,10,76,037,37,,,,,,,,*78
$GPRMC,074920.000,A,3351.9406,S,15112.5460,E,0.00,0.0,031225,,,A*42
$GPGGA,074922.000,3351.8625,S,15112.6121,E,1,08,1.0,50.0,M,0.0,M,,*48
$GPGSV,2,1,08,01,53,156,45,02,61,104,31,03,53,173,31,04,77,278,48*73
$GPGSV,2,2,08,05,71,268,44,06,21,068,38,07,54,208,42,08,31,036,42*7D
$GPRMC,074922.000,A,3351.8625,S,15112.6121,E,0.00,0.0,031225,,,A*41
$GPGGA,074924.000,3351.8584,S,15112.6046,E,1,10,1.0,50.0,M,0.0,M,,*4F
$GPGSV,3,1,10,01,51,320,33,02,70,114,44,03,56,167,40,04,72,150,30*7D
$GPGSV,3,2,10,05,79,262,46,06,40,052,50,07,63,078,33,08,78,267,11*7F
$GPGSV,3,3,10,09,68,310,47,10,75,180,48,,,,,,,,*78
$GPRMC,074924.000,A,3351.8584,S,15112.6046,E,0.00,0.0,031225,,,A*4F
$GPGGA,074926.000,3351.9515,S,15112.6106,E,1,13,1.0,50.0,M,0.0,M,,*42
$GPGSV,4,1,13,01,28,140,30,02,37,130,47,03,22,151,50,04,12,293,18*71
$GPGSV,4,2,13,05,40,356,46,06,66,352,48,07,80,319,45,08,47,319,43*72
$GPGSV,4,3,13,09,37,144,35,10,39,061,33,11,62,009,40,12,30,281,39*72
$GPGSV,4,4,13,13,43,006,47,,,,,,,,,,,,*4B
$GPRMC,074926.000,A,3351.9515,S,15112.6106,E,0.00,0.0,031225,,,A*41
$GPGGA,074928.000,3351.8503,S,15112.6360,E,1,13,1.0,50.0,M,0.0,M,,*48
$GPGSV,4,1,13,01,61,112,46,02,69,193,45,03,45,349,47,04,29,021,42*7A
$GPGSV,4,2,13,05,24,318,40,06,66,199,38,07,29,173,43,08,71,138,20*74
$GPGSV,4,3,13,09,59,001,35,10,54,197,40,11,21,137,50,12,69,320,32*7A
$GPGSV,4,4,13,13,68,006,39,,,,,,,,,,,,*4B
$GPRMC,074928.000,A,3351.8503,S,15112.6360,E,0.00,0.0,031225,,,A*4B
$GPGGA,074930.000,3351.8717,S,15112.6054,E,1,10,1.0,50.0,M,0.0,M,,*41
$GPGSV,3,1,10,01,71,334,43,02,40,341,13,03,77,272,16,04,65,039,43*75
$GPGSV,3,2,10,05,11,241,49,06,22,254,11,07,64,070,43,08,13,353,40*7D
$GPGSV,3,3,10,09,48,049,38,10,67,315,32,,,,,,,,*7D
$GPRMC,074930.000,A,3351.8717,S,15112.6054,E,0.00,0.0,031225,,,A*41
$GPGGA,074932.000,3351.8905,S,15112.5575,E,1,12,1.0,50.0,M,0.0,M,,*49
$GPGSV,3,1,12,01,30,169,33,02,26,089,44,03,60,276,34,04,66,249,33*79
$GPGSV,3,2,12,05,47,162,43,06,19,149,30,07,12,191,30,08,53,289,35*7B
$GPGSV,3,3,12,09,23,246,48,10,49,069,32,11,41,260,41,12,70,120,50*7A
$GPRMC,074932.000,A,3351.8905,S,15112.5575,E,0.00,0.0,031225,,,A*4B
$GPGGA,074934.000,3351.8877,S,15112.5397,E,1,08,1.0,50.0,M,0.0,M,,*4A
$GPGSV,2,1,08,01,69,315,40,02,63,179,18,03,58,291,49,04,37,139,40*78
$GPGSV,2,2,08,05,35,194,44,06,35,177,32,07,45,110,43,08,43,266,42*74
$GPRMC,074934.000,A,3351.8877,S,15112.5397,E,0.00,0.0,031225,,,A*43
$GPGGA,074936.000,3351.9411,S,15112.6155,E,1,13,1.0,50.0,M,0.0,M,,*40
$GPGSV,4,1,13,01,43,081,49,02,11,269,44,03,26,048,39,04,35,106,47*74
$GPGSV,4,2,13,05,11,197,35,06,45,182,38,07,74,132,42,08,53,353,42*79
$GPGSV,4,3,13,09,74,015,45,10,64,310,30,11,41,114,30,12,53,241,31*73
$GPGSV,4,4,13,13,39,288,46,,,,,,,,,,,,*43
$GPRMC,074936.000,A,3351.9411,S,15112.6155,E,0.00,0.0,031225,,,A*43
$GPGGA,074938.000,3351.8511,S,15112.5637,E,1,09,1.0,50.0,M,0.0,M,,*45
$GPGSV,3,1,09,01,27,173,39,02,63,010,37,03,23,143,47,04,35,098,41*7A
$GPGSV,3,2,09,05,23,160,46,06,27,323,41,07,77,006,34,08,61,142,44*7A
$GPGSV,3,3,09,09,44,198,35,,,,,,,,,,,,*4F
$GPRMC,074938.000,A,3351.8511,S,15112.5637,E,0.00,0.0,031225,,,A*4D
$GPGGA,074940.000,3351.9287,S,15112.6222,E,1,12,1.0,50.0,M,0.0,M,,*4A
$GPGSV,3,1,12,01,47,330,50,02,34,050,48,03,45,115,41,04,70,086,37*78
$GPGSV,3,2,12,05,64,219,32,06,67,158,42,07,47,109,44,08,11,075,15*78
$GPGSV,3,3,12,09,14,009,34,10,62,221,32,11,79,167,36,12,30,034,49*7C
$GPRMC,074940.000,A,3351.9287,S,15112.6222,E,0.00,0.0,031225,,,A*48
$GPGGA,074942.000,3351.9392,S,15112.6538,E,1,11,1.0,50.0,M,0.0,M,,*42
$GPGSV,3,1,11,01,40,100,33,02,80,338,43,03,16,291,48,04,47,045,48*72
$GPGSV,3,2,11,05,11,031,42,06,18,080,35,07,58,231,38,08,12,280,37*7C
$GPGSV,3,3,11,09,48,109,44,10,31,269,47,11,31,292,34,,,,*45
$GPRMC,074942.000,A,3351.9392,S,15112.6538,E,0.00,0.0,031225,,,A*43
$GPGGA,074944.000,3351.9004,S,15112.6438,E,1,12,1.0,50.0,M,0.0,M,,*4A
$GPGSV,3,1,12,01,67,341,44,02,75,103,40,03,74,021,50,04,46,195,44*75
$GPGSV,3,2,12,05,61,075,34,06,67,021,47,07,21,259,33,08,43,294,46*73
$GPGSV,3,3,12,09,38,156,37,10,65,187,37,11,14,070,33,12,72,251,45*75
$GPRMC,074944.000,A,3351.9004,S,15112.6438,E,0.00,0.0,031225,,,A*48
$GPGGA,074946.000,3351.8541,S,15112.6089,E,1,11,1.0,50.0,M,0.0,M,,*40
$GPGSV,3,1,11,01,38,079,40,02,21,245,34,03,57,294,15,04,75,233,12*73
$GPGSV,3,2,11,05,33,347,42,06,29,347,44,07,52,217,48,08,60,190,33*78
$GPGSV,3,3,11,09,19,065,41,10,77,164,40,11,15,067,32,,,,*4C
$GPRMC,074946.000,A,3351.8541,S,15112.6089,E,0.00,0.0,031225,,,A*41
$GPGGA,074948.000,3351.8581,S,15112.5440,E,1,13,1.0,50.0,M,0.0,M,,*42
$GPGSV,4,1,13,01,51,240,50,02,64,154,41,03,25,250,11,04,34,113,42*78
$GPGSV,4,2,13,05,31,247,48,06,15,248,12,07,66,038,43,08,31,235,42*7B
$GPGSV,4,3,13,09,36,210,36,10,57,233,49,11,57,322,14,12,21,035,35*7E
$GPGSV,4,4,13,13,75,010,39,,,,,,,,,,,,*40
$GPRMC,074948.000,A,3351.8581,S,15112.5440,E,0.00,0.0,031225,,,A*41
$GPGGA,074950.000,3351.9002,S,15112.5507,E,1,11,1.0,50.0,M,0.0,M,,*44
$GPGSV,3,1,11,01,38,328,35,02,49,164,14,03,19,321,39,04,14,150,37*77
$GPGSV,3,2,11,05,52,206,41,06,75,136,39,07,77,180,44,08,31,095,36*7C
$GPGSV,3,3,11,09,28,338,32,10,34,352,46,11,26,040,38,,,,*48
$GPRMC,074950.000,A,3351.9002,S,15112.5507,E,0.00,0.0,031225,,,A*45
$GPGGA,074952.000,3351.9253,S,15112.5903,E,1,14,1.0,50.0,M,0.0,M,,*4D
$GPGSV,4,1,14,01,47,176,31,02,33,081,45,03,65,359,33,04,25,065,35*7A
$GPGSV,4,2,14,05,43,226,34,06,65,259,11,07,53,066,35,08,68,250,48*78
$GPGSV,4,3,14,09,25,195,47,10,11,355,34,11,27,303,35,12,70,073,50*78
$GPGSV,4,4,14,13,36,167,34,14,60,203,34,,,,,,,,*79
$GPRMC,074952.000,A,3351.9253,S,15112.5903,E,0.00,0.0,031225,,,A*49
$GPGGA,074954.000,3351.9338,S,15112.6015,E,1,09,1.0,50.0,M,0.0,M,,*46
$GPGSV,3,1,09,01,79,085,20,02,72,178,43,03,38,150,45,04,66,051,42*77
$GPGSV,3,2,09,05,19,219,34,06,45,354,40,07,77,154,48,08,45,165,45*71
$GPGSV,3,3,09,09,60,043,41,,,,,,,,,,,,*4D
$GPRMC,074954.000,A,3351.9338,S,15112.6015,E,0.00,0.0,031225,,,A*4E
$GPGGA,074956.000,3351.9248,S,15112.6493,E,1,11,1.0,50.0,M,0.0,M,,*41
$GPGSV,3,1,11,01,42,342,36,02,73,324,44,03,78,115,38,04,22,099,47*7A
$GPGSV,3,2,11,05,75,131,35,06,21,168,45,07,75,171,37,08,41,258,40*71
$GPGSV,3,3,11,09,62,322,39,10,72,187,36,11,49,005,46,,,,*48
$GPRMC,074956.000,A,3351.9248,S,15112.6493,E,0.00,0.0,031225,,,A*40
$GPGGA,074958.000,3351.8913,S,15112.6235,E,1,13,1.0,50.0,M,0.0,M,,*43
$GPGSV,4,1,13,01,74,243,20,02,18,135,35,03,79,229,39,04,34,076,50*78
$GPGSV,4,2,13,05,61,055,36,06,37,277,30,07,76,115,30,08,31,233,38*7A
$GPGSV,4,3,13,09,25,153,34,10,33,218,32,11,61,295,49,12,11,052,40*7D
$GPGSV,4,4,13,13,36,234,46,,,,,,,,,,,,*4B
$GPRMC,074958.000,A,3351.8913,S,15112.6235,E,0.00,0.0,031225,,,A*40
$GPGGA,075000.000,3351.8621,S,15112.5688,E,1,12,1.0,50.0,M,0.0,M,,*48
$GPGSV,3,1,12,01,80,085,41,02,53,078,31,03,68,078,50,04,51,294,36*7D
$GPGSV,3,2,12,05,43,326,41,06,25,303,47,07,30,074,30,08,14,038,48*77
$GPGSV,3,3,12,09,40,105,13,10,38,202,32,11,35,172,33,12,10,214,35*7B
$GPRMC,075000.000,A,3351.8621,S,15112.5688,E,0.00,0.0,031225,,,A*4A
$GPGGA,075002.000,3351.8771,S,15112.5769,E,1,10,1.0,50.0,M,0.0,M,,*42
$GPGSV,3,1,10,01,40,231,40,02,68,263,47,03,41,121,34,04,42,069,12*7E
$GPGSV,3,2,10,05,48,052,38,06,60,116,38,07,36,158,31,08,14,088,30*73
$GPGSV,3,3,10,09,59,179,44,10,62,253,50,,,,,,,,*76
$GPRMC,075002.000,A,3351.8771,S,15112.5769,E,0.00,0.0,031225,,,A*42
$GPGGA,075004.000,3351.8946,S,15112.5908,E,1,08,1.0,50.0,M,0.0,M,,*4E
$GPGSV,2,1,08,01,49,257,44,02,38,225,47,03,29,331,44,04,46,128,38*7E
$GPGSV,2,2,08,05,75,196,37,06,56,272,40,07,60,241,38,08,59,323,46*73
$GPRMC,075004.000,A,3351.8946,S,15112.5908,E,0.00,0.0,031225,,,A*47
$GPGGA,075006.000,3351.8603,S,15112.5629,E,1,12,1.0,50.0,M,0.0,M,,*45
$GPGSV,3,1,12,01,55,349,39,02,68,158,47,03,13,063,40,04,55,087,47*76
$GPGSV,3,2,12,05,28,299,15,06,77,001,46,07,69,282,37,08,37,172,36*7E
$GPGSV,3,3,12,09,47,109,47,10,22,016,39,11,29,038,43,12,44,021,39*7A
$GPRMC,075006.000,A,3351.8603,S,15112.5629,E,0.00,0.0,031225,,,A*47
$GPGGA,075008.000,3351.9015,S,15112.6023,E,1,10,1.0,50.0,M,0.0,M,,*46
$GPGSV,3,1,10,01,46,275,12,02,21,100,50,03,28,260,41,04,70,233,45*77
$GPGSV,3,2,10,05,61,146,32,06,12,309,38,07,34,294,45,08,54,026,31*7C
$GPGSV,3,3,10,09,29,180,30,10,25,040,32,,,,,,,,*73
$GPRMC,075008.000,A,3351.9015,S,15112.6023,E,0.00,0.0,031225,,,A*46
$GPGGA,075010.000,3351.9438,S,15112.6370,E,1,08,1.0,50.0,M,0.0,M,,*48
$GPGSV,2,1,08,01,32,346,15,02,34,203,42,03,16,222,44,04,62,157,35*76
$GPGSV,2,2,08,05,72,036,38,06,68,039,14,07,21,129,30,08,34,269,39*7D
$GPRMC,075010.000,A,3351.9438,S,15112.6370,E,0.00,0.0,031225,,,A*41
$GPGGA,075012.000,3351.8931,S,15112.6176,E,1,14,1.0,50.0,M,0.0,M,,*46
$GPGSV,4,1,14,01,52,025,49,02,16,344,46,03,16,043,36,04,69,182,40*73
$GPGSV,4,2,14,05,23,060,42,06,34,309,30,07,30,151,41,08,41,334,43*7C
$GPGSV,4,3,14,09,22,007,37,10,26,142,49,11,64,023,50,12,28,241,43*71
$GPGSV,4,4,14,13,58,095,49,14,21,241,45,,,,,,,,*72
$GPRMC,075012.000,A,3351.8931,S,15112.6176,E,0.00,0.0,031225,,,A*42
$GPGGA,075014.000,3351.9538,S,15112.5514,E,1,13,1.0,50.0,M,0.0,M,,*40
$GPGSV,4,1,13,01,17,344,33,02,52,302,42,03,69,291,42,04,17,256,43*7C
$GPGSV,4,2,13,05,56,323,36,06,54,312,44,07,41,006,38,08,80,154,31*76
$GPGSV,4,3,13,09,57,107,34,10,32,125,39,11,16,230,47,12,40,243,30*7E
$GPGSV,4,4,13,13,50,150,31,,,,,,,,,,,,*4A
$GPRMC,075014.000,A,3351.9538,S,15112.5514,E,0.00,0.0,031225,,,A*43
$GPGGA,075016.000,3351.9098,S,15112.6516,E,1,10,1.0,50.0,M,0.0,M,,*4F
$GPGSV,3,1,10,01,48,114,35,02,76,161,47,03,27,311,31,04,59,193,42*71
$GPGSV,3,2,10,05,71,071,49,06,22,237,34,07,46,261,41,08,21,321,32*79
$GPGSV,3,3,10,09,23,033,37,10,40,107,36,,,,,,,,*72
$GPRMC,075016.000,A,3351.9098,S,15112.6516,E,0.00,0.0,031225,,,A*4F
$GPGGA,075018.000,3351.8940,S,15112.5921,E,1,10,1.0,50.0,M,0.0,M,,*47
$GPGSV,3,1,10,01,76,181,36,02,46,117,49,03,55,097,34,04,64,331,46*72
$GPGSV,3,2,10,05,46,274,40,06,11,189,35,07,12,100,32,08,19,135,44*78
$GPGSV,3,3,10,09,34,325,44,10,28,324,35,,,,,,,,*7A
$GPRMC,075018.000,A,3351.8940,S,15112.5921,E,0.00,0.0,031225,,,A*47
$GPGGA,075020.000,3351.9096,S,15112.6004,E,1,14,1.0,50.0,M,0.0,M,,*46
$GPGSV,4,1,14,01,17,071,32,02,22,319,50,03,69,073,42,04,69,105,46*76
$GPGSV,4,2,14,05,46,224,31,06,50,130,41,07,33,338,45,08,49,059,36*7D
$GPGSV,4,3,14,09,36,218,46,10,16,043,39,11,62,111,37,12,39,044,41*78
$GPGSV,4,4,14,13,32,322,45,14,32,120,32,,,,,,,,*7B
$GPRMC,075020.000,A,3351.9096,S,15112.6004,E,0.00,0.0,031225,,,A*42
$GPGGA,075022.000,3351.9042,S,15112.5819,E,1,14,1.0,50.0,M,0.0,M,,*4A
$GPGSV,4,1,14,01,49,065,32,02,32,068,50,03,34,107,39,04,17,179,36*7F
$GPGSV,4,2,14,05,30,213,15,06,40,289,31,07,73,293,18,08,25,077,48*7A
$GPGSV,4,3,14,09,67,097,30,10,22,196,36,11,80,189,37,12,34,074,49*72
$GPGSV,4,4,14,13,28,234,30,14,34,191,32,,,,,,,,*78
$GPRMC,075022.000,A,3351.9042,S,15112.5819,E,0.00,0.0,031225,,,A*4E
$GPGGA,075024.000,3351.9270,S,15112.5452,E,1,10,1.0,50.0,M,0.0,M,,*48
$GPGSV,3,1,10,01,67,038,18,02,16,345,46,03,39,160,50,04,63,271,30*70
$GPGSV,3,2,10,05,10,265,38,06,13,171,42,07,33,294,43,08,10,137,48*7D
$GPGSV,3,3,10,09,35,166,42,10,78,301,46,,,,,,,,*7E
$GPRMC,075024.000,A,3351.9270,S,15112.5452,E,0.00,0.0,031225,,,A*48
$GPGGA,075026.000,3351.8677,S,15112.5436,E,1,13,1.0,50.0,M,0.0,M,,*49
$GPGSV,4,1,13,01,38,032,40,02,75,271,40,03,17,164,44,04,71,054,37*70
$GPGSV,4,2,13,05,33,124,19,06,21,034,39,07,22,297,12,08,17,042,31*7D
$GPGSV,4,3,13,09,18,312,15,10,55,296,36,11,38,135,49,12,64,288,39*79
$GPGSV,4,4,13,13,40,140,39,,,,,,,,,,,,*42
$GPRMC,075026.000,A,3351.8677,S,15112.5436,E,0.00,0.0,031225,,,A*4A
$GPGGA,075028.000,3351.9353,S,15112.5967,E,1,13,1.0,50.0,M,0.0,M,,*4C
$GPGSV,4,1,13,01,61,215,49,02,79,205,11,03,51,097,48,04,48,181,16*7A
$GPGSV,4,2,13,05,34,044,11,06,42,103,41,07,74,233,48,08,34,278,42*76
$GPGSV,4,3,13,09,62,107,31,10,42,044,49,11,75,135,38,12,74,185,45*7C
$GPGSV,4,4,13,13,72,304,30,,,,,,,,,,,,*48
$GPRMC,075028.000,A,3351.9353,S,15112.5967,E,0.00,0.0,031225,,,A*4F
$GPGGA,075030.000,3351.8535,S,15112.5997,E,1,14,1.0,50.0,M,0.0,M,,*4A
$GPGSV,4,1,14,01,13,311,36,02,66,126,34,03,77,034,43,04,79,182,34*79
$GPGSV,4,2,14,05,12,247,38,06,43,282,36,07,32,037,36,08,75,128,42*7A
$GPGSV,4,3,14,09,56,079,36,10,25,119,47,11,59,043,38,12,33,170,34*74
$GPGSV,4,4,14,13,53,027,50,14,12,202,37,,,,,,,,*7A
$GPRMC,075030.000,A,3351.8535,S,15112.5997,E,0.00,0.0,031225,,,A*4E
$GPGGA,075032.000,3351.8899,S,15112.5484,E,1,11,1.0,50.0,M,0.0,M,,*49
$GPGSV,3,1,11,01,11,320,44,02,50,329,14,03,80,156,50,04,20,004,34*78
$GPGSV,3,2,11,05,23,322,49,06,44,311,37,07,71,288,32,08,75,037,33*7F
$GPGSV,3,3,11,09,38,061,31,10,18,305,34,11,38,336,50,,,,*4F
$GPRMC,075032.000,A,3351.8899,S,15112.5484,E,0.00,0.0,031225,,,A*48
$GPGGA,075034.000,3351.9010,S,15112.5670,E,1,10,1.0,50.0,M,0.0,M,,*4F
$GPGSV,3,1,10,01,77,095,15,02,31,150,33,03,77,047,40,04,60,216,43*73
$GPGSV,3,2,10,05,57,207,34,06,40,354,40,07,12,037,13,08,68,119,47*76
$GPGSV,3,3,10,09,68,333,38,10,58,279,45,,,,,,,,*76
$GPRMC,075034.000,A,3351.9010,S,15112.5670,E,0.00,0.0,031225,,,A*4F
$GPGGA,075036.000,3351.8592,S,15112.5846,E,1,09,1.0,50.0,M,0.0,M,,*40
$GPGSV,3,1,09,01,15,336,43,02,68,002,45,03,47,318,38,04,50,059,45*74
$GPGSV,3,2,09,05,68,192,49,06,45,198,15,07,17,032,41,08,29,334,49*71
$GPGSV,3,3,09,09,45,231,48,,,,,,,,,,,,*44
$GPRMC,075036.000,A,3351.8592,S,15112.5846,E,0.00,0.0,031225,,,A*48
$GPGGA,075038.000,3351.9590,S,15112.5647,E,1,13,1.0,50.0,M,0.0,M,,*49
$GPGSV,4,1,13,01,59,269,14,02,42,231,32,03,12,305,46,04,75,316,44*78
$GPGSV,4,2,13,05,24,135,38,06,61,166,48,07,48,297,33,08,74,102,39*7B
$GPGSV,4,3,13,09,30,207,46,10,29,272,49,11,17,074,38,12,64,249,19*79
$GPGSV,4,4,13,13,27,281,35,,,,,,,,,,,,*41
$GPRMC,075038.000,A,3351.9590,S,15112.5647,E,0.00,0.0,031225,,,A*4A
$GPGGA,075040.000,3351.8521,S,15112.6022,E,1,10,1.0,50.0,M,0.0,M,,*48
$GPGSV,3,1,10,01,37,338,36,02,36,007,31,03,54,151,37,04,78,172,32*7D
$GPGSV,3,2,10,05,28,170,20,06,62,306,49,07,10,127,39,08,30,268,48*7B
$GPGSV,3,3,10,09,67,318,50,10,75,116,38,,,,,,,,*71
$GPRMC,075040.000,A,3351.8521,S,15112.6022,E,0.00,0.0,031225,,,A*48
$GPGGA,075042.000,3351.8951,S,15112.5764,E,1,09,1.0,50.0,M,0.0,M,,*4F
$GPGSV,3,1,09,01,72,092,50,02,21,154,34,03,61,100,30,04,36,341,48*73
$GPGSV,3,2,09,05,42,067,37,06,57,187,31,07,51,158,46,08,41,142,45*79
$GPGSV,3,3,09,09,28,048,38,,,,,,,,,,,,*44
$GPRMC,075042.000,A,3351.8951,S,15112.5764,E,0.00,0.0,031225,,,A*47
$GPGGA,075044.000,3351.8696,S,15112.6416,E,1,13,1.0,50.0,M,0.0,M,,*43
$GPGSV,4,1,13,01,14,105,34,02,17,184,38,03,55,238,45,04,59,142,30*7C
$GPGSV,4,2,13,05,11,059,46,06,68,338,33,07,30,032,44,08,47,104,47*7E
$GPGSV,4,3,13,09,34,096,49,10,58,271,31,11,23,167,30,12,57,082,15*77
$GPGSV,4,4,13,13,75,298,33,,,,,,,,,,,,*48
$GPRMC,075044.000,A,3351.8696,S,15112.6416,E,0.00,0.0,031225,,,A*40
$GPGGA,075046.000,3351.8784,S,15112.6176,E,1,09,1.0,50.0,M,0.0,M,,*4B
$GPGSV,3,1,09,01,26,299,39,02,46,202,32,03,71,329,33,04,12,105,36*75
$GPGSV,3,2,09,05,44,051,32,06,47,065,48,07,39,256,40,08,77,198,13*79
$GPGSV,3,3,09,09,80,282,30,,,,,,,,,,,,*4A
$GPRMC,075046.000,A,3351.8784,S,15112.6176,E,0.00,0.0,031225,,,A*43
$GPGGA,075048.000,3351.8778,S,15112.6001,E,1,13,1.0,50.0,M,0.0,M,,*4C
$GPGSV,4,1,13,01,11,172,50,02,35,025,45,03,56,268,33,04,19,165,18*77
$GPGSV,4,2,13,05,13,173,18,06,62,029,35,07,50,205,47,08,31,147,31*75
$GPGSV,4,3,13,09,26,322,45,10,26,150,39,11,23,325,45,12,66,180,49*7B
$GPGSV,4,4,13,13,43,092,30,,,,,,,,,,,,*46
$GPRMC,075048.000,A,3351.8778,S,15112.6001,E,0.00,0.0,031225,,,A*4F
$GPGGA,075050.000,3351.8831,S,15112.5712,E,1,09,1.0,50.0,M,0.0,M,,*4A
$GPGSV,3,1,09,01,32,137,38,02,18,082,33,03,62,050,46,04,40,102,13*7C
$GPGSV,3,2,09,05,64,030,18,06,49,117,45,07,74,287,44,08,65,053,10*74
$GPGSV,3,3,09,09,79,187,47,,,,,,,,,,,,*4A
$GPRMC,075050.000,A,3351.8831,S,15112.5712,E,0.00,0.0,031225,,,A*42
$GPGGA,075052.000,3351.9315,S,15112.5775,E,1,10,1.0,50.0,M,0.0,M,,*4D
$GPGSV,3,1,10,01,19,330,46,02,48,249,44,03,40,037,50,04,19,286,43*71
$GPGSV,3,2,10,05,17,327,31,06,14,148,34,07,33,145,31,08,19,195,45*7E
$GPGSV,3,3,10,09,60,333,46,10,21,316,17,,,,,,,,*76
$GPRMC,075052.000,A,3351.9315,S,15112.5775,E,0.00,0.0,031225,,,A*4D
$GPGGA,075054.000,3351.9484,S,15112.6520,E,1,12,1.0,50.0,M,0.0,M,,*47
$GPGSV,3,1,12,01,37,147,47,02,79,339,14,03,72,153,34,04,59,176,50*77
$GPGSV,3,2,12,05,12,212,30,06,76,310,50,07,65,097,39,08,43,158,41*79
$GPGSV,3,3,12,09,29,307,43,10,76,192,42,11,56,016,50,12,47,139,36*78
$GPRMC,075054.000,A,3351.9484,S,15112.6520,E,0.00,0.0,031225,,,A*45
$GPGGA,075056.000,3351.9572,S,15112.5476,E,1,09,1.0,50.0,M,0.0,M,,*46
$GPGSV,3,1,09,01,52,156,46,02,49,006,31,03,73,084,46,04,51,063,40*77
$GPGSV,3,2,09,05,57,112,49,06,44,058,39,07,73,156,31,08,20,286,31*7F
$GPGSV,3,3,09,09,55,194,38,,,,,,,,,,,,*4E
$GPRMC,075056.000,A,3351.9572,S,15112.5476,E,0.00,0.0,031225,,,A*4E
$GPGGA,075058.000,3351.8648,S,15112.6064,E,1,11,1.0,50.0,M,0.0,M,,*4E
$GPGSV,3,1,11,01,60,196,36,02,42,108,47,03,10,040,39,04,13,082,40*7D
$GPGSV,3,2,11,05,44,069,39,06,55,154,30,07,73,293,32,08,45,102,32*7C
$GPGSV,3,3,11,09,80,217,44,10,36,173,33,11,38,016,50,,,,*44
$GPRMC,075058.000,A,3351.8648,S,15112.6064,E,0.00,0.0,031225,,,A*4F
$GPGGA,075100.000,3351.8869,S,15112.6526,E,1,09,1.0,50.0,M,0.0,M,,*45
$GPGSV,3,1,09,01,64,153,38,02,59,239,47,03,19,323,34,04,32,114,43*70
$GPGSV,3,2,09,05,80,261,42,06,46,209,48,07,49,102,37,08,78,305,37*74
$GPGSV,3,3,09,09,65,345,11,,,,,,,,,,,,*48
$GPRMC,075100.000,A,3351.8869,S,15112.6526,E,0.00,0.0,031225,,,A*4D
$GPGGA,075102.000,3351.9587,S,15112.5703,E,1,10,1.0,50.0,M,0.0,M,,*45
$GPGSV,3,1,10,01,66,180,49,02,27,026,44,03,43,070,32,04,27,170,39*73
$GPGSV,3,2,10,05,17,152,35,06,19,025,49,07,79,173,47,08,18,316,46*76
$GPGSV,3,3,10,09,53,058,36,10,57,153,33,,,,,,,,*7B
$GPRMC,075102.000,A,3351.9587,S,15112.5703,E,0.00,0.0,031225,,,A*45
$GPGGA,075104.000,3351.9503,S,15112.5875,E,1,12,1.0,50.0,M,0.0,M,,*43
$GPGSV,3,1,12,01,24,062,30,02,76,354,46,03,45,167,39,04,79,255,40*7F
$GPGSV,3,2,12,05,41,173,39,06,12,002,38,07,25,160,39,08,46,241,34*7F
$GPGSV,3,3,12,09,59,333,45,10,70,244,43,11,79,197,39,12,32,341,42*77
$GPRMC,075104.000,A,3351.9503,S,15112.5875,E,0.00,0.0,031225,,,A*41
$GPGGA,075106.000,3351.8655,S,15112.6243,E,1,11,1.0,50.0,M,0.0,M,,*4F
$GPGSV,3,1,11,01,28,204,41,02,56,270,47,03,20,202,40,04,69,030,42*7F
$GPGSV,3,2,11,05,40,219,43,06,65,016,50,07,18,319,44,08,57,181,35*72
$GPGSV,3,3,11,09,59,133,45,10,36,250,42,11,41,243,34,,,,*4E
$GPRMC,075106.000,A,3351.8655,S,15112.6243,E,0.00,0.0,031225,,,A*4E
$GPGGA,075108.000,3351.8754,S,15112.5842,E,1,12,1.0,50.0,M,0.0,M,,*4A
$GPGSV,3,1,12,01,71,119,42,02,15,262,33,03,52,042,44,04,31,148,44*79
$GPGSV,3,2,12,05,26,027,37,06,27,070,35,07,37,132,32,08,26,278,39*70
$GPGSV,3,3,12,09,22,277,40,10,74,200,41,11,18,154,40,12,63,220,31*79
$GPRMC,075108.000,A,3351.8754,S,15112.5842,E,0.00,0.0,031225,,,A*48
$GPGGA,075110.000,3351.8609,S,15112.6082,E,1,11,1.0,50.0,M,0.0,M,,*4E
$GPGSV,3,1,11,01,65,038,30,02,16,005,17,03,36,294,31,04,34,314,42*7F
$GPGSV,3,2,11,05,11,116,39,06,75,051,30,07,15,349,46,08,28,254,43*7B
$GPGSV,3,3,11,09,49,281,47,10,51,259,38,11,75,132,37,,,,*43
$GPRMC,075110.000,A,3351.8609,S,15112.6082,E,0.00,0.0,031225,,,A*4F
$GPGGA,075112.000,3351.8757,S,15112.6010,E,1,08,1.0,50.0,M,0.0,M,,*45
$GPGSV,2,1,08,01,75,208,49,02,73,345,30,03,19,235,39,04,63,208,45*7E
$GPGSV,2,2,08,05,55,181,50,06,38,281,11,07,28,112,33,08,74,038,32*71
$GPRMC,075112.000,A,3351.8757,S,15112.6010,E,0.00,0.0,031225,,,A*4C
$GPGGA,075114.000,3351.8929,S,15112.5704,E,1,10,1.0,50.0,M,0.0,M,,*4C
$GPGSV,3,1,10,01,15,122,48,02,55,041,38,03,72,343,42,04,78,296,38*77
$GPGSV,3,2,10,05,61,278,35,06,56,131,44,07,13,221,45,08,31,042,30*7C
$GPGSV,3,3,10,09,70,178,38,10,49,309,48,,,,,,,,*79
$GPRMC,075114.000,A,3351.8929,S,15112.5704,E,0.00,0.0,031225,,,A*4C
$GPGGA,075116.000,3351.8515,S,15112.6321,E,1,09,1.0,50.0,M,0.0,M,,*45
$GPGSV,3,1,09,01,42,117,12,02,13,284,33,03,56,185,39,04,25,195,43*70
$GPGSV,3,2,09,05,77,306,50,06,68,007,44,07,80,087,42,08,62,000,16*76
$GPGSV,3,3,09,09,21,002,36,,,,,,,,,,,,*4D
$GPRMC,075116.000,A,3351.8515,S,15112.6321,E,0.00,0.0,031225,,,A*4D
$GPGGA,075118.000,3351.9148,S,15112.5920,E,1,14,1.0,50.0,M,0.0,M,,*42
$GPGSV,4,1,14,01,57,177,40,02,41,247,37,03,31,041,45,04,33,098,44*7D
$GPGSV,4,2,14,05,76,318,11,06,52,235,33,07,30,131,30,08,41,199,46*7B
$GPGSV,4,3,14,09,35,329,37,10,26,125,30,11,16,159,11,12,60,241,30*73
$GPGSV,4,4,14,13,59,101,50,14,69,325,10,,,,,,,,*78
$GPRMC,075118.000,A,3351.9148,S,15112.5920,E,0.00,0.0,031225,,,A*46
$GPGGA,075120.000,3351.9005,S,15112.5369,E,1,12,1.0,50.0,M,0.0,M,,*40
$GPGSV,3,1,12,01,68,144,44,02,22,194,45,03,76,104,31,04,18,339,41*7D
$GPGSV,3,2,12,05,10,274,47,06,22,119,33,07,57,314,44,08,52,123,41*7B
$GPGSV,3,3,12,09,68,077,43,10,45,081,45,11,71,326,30,12,70,331,35*73
$GPRMC,075120.000,A,3351.9005,S,15112.5369,E,0.00,0.0,031225,,,A*42
$GPGGA,075122.000,3351.8874,S,15112.6516,E,1,11,1.0,50.0,M,0.0,M,,*43
$GPGSV,3,1,11,01,36,079,38,02,46,306,47,03,63,069,46,04,16,017,50*77
$GPGSV,3,2,11,05,36,284,40,06,48,116,37,07,39,209,34,08,29,288,35*7C
$GPGSV,3,3,11,09,26,358,15,10,35,136,19,11,58,139,30,,,,*40
$GPRMC,075122.000,A,3351.8874,S,15112.6516,E,0.00,0.0,031225,,,A*42
$GPGGA,075124.000,3351.9635,S,15112.6310,E,1,09,1.0,50.0,M,0.0,M,,*46
$GPGSV,3,1,09,01,25,238,42,02,17,259,38,03,50,302,50,04,33,260,37*7C
$GPGSV,3,2,09,05,25,280,37,06,66,069,40,07,37,274,42,08,31,194,46*70
$GPGSV,3,3,09,09,56,052,38,,,,,,,,,,,,*46
$GPRMC,075124.000,A,3351.9635,S,15112.6310,E,0.00,0.0,031225,,,A*4E
$GPGGA,075126.000,3351.8798,S,15112.6502,E,1,08,1.0,50.0,M,0.0,M,,*47
$GPGSV,2,1,08,01,25,174,44,02,52,300,16,03,64,267,46,04,47,148,43*7A
$GPGSV,2,2,08,05,47,244,46,06,27,036,46,07,59,292,36,08,53,210,33*79
$GPRMC,075126.000,A,3351.8798,S,15112.6502,E,0.00,0.0,031225,,,A*4E
$GPGGA,075128.000,3351.9394,S,15112.5713,E,1,11,1.0,50.0,M,0.0,M,,*49
$GPGSV,3,1,11,01,70,245,35,02,78,204,11,03,29,208,49,04,56,252,40*7A
$GPGSV,3,2,11,05,73,220,44,06,17,158,42,07,10,270,15,08,14,205,50*7B
$GPGSV,3,3,11,09,78,204,45,10,32,157,38,11,39,311,43,,,,*4E
$GPRMC,075128.000,A,3351.9394,S,15112.5713,E,0.00,0.0,031225,,,A*48
$GPGGA,075130.000,3351.9034,S,15112.5528,E,1,11,1.0,50.0,M,0.0,M,,*43
$GPGSV,3,1,11,01,49,333,39,02,37,050,38,03,78,324,43,04,69,267,33*70
$GPGSV,3,2,11,05,70,230,36,06,40,104,35,07,62,099,30,08,63,303,42*74
$GPGSV,3,3,11,09,33,166,15,10,17,225,33,11,32,134,34,,,,*47
$GPRMC,075130.000,A,3351.9034,S,15112.5528,E,0.00,0.0,031225,,,A*42
$GPGGA,075132.000,3351.9219,S,15112.6118,E,1,13,1.0,50.0,M,0.0,M,,*4A
$GPGSV,4,1,13,01,37,298,31,02,48,044,31,03,72,191,42,04,65,329,49*7D
$GPGSV,4,2,13,05,79,237,36,06,76,313,48,07,27,042,49,08,48,138,48*74
$GPGSV,4,3,13,09,77,027,34,10,47,343,50,11,41,147,32,12,67,115,19*7D
$GPGSV,4,4,13,13,68,047,37,,,,,,,,,,,,*40
$GPRMC,075132.000,A,3351.9219,S,15112.6118,E,0.00,0.0,031225,,,A*49
$GPGGA,075134.000,3351.9172,S,15112.6163,E,1,11,1.0,50.0,M,0.0,M,,*4C
$GPGSV,3,1,11,01,74,099,36,02,70,142,47,03,29,254,43,04,76,081,44*7D
$GPGSV,3,2,11,05,54,325,39,06,48,225,45,07,65,155,41,08,43,230,47*71
$GPGSV,3,3,11,09,59,114,19,10,56,191,34,11,42,136,18,,,,*47
$GPRMC,075134.000,A,3351.9172,S,15112.6163,E,0.00,0.0,031225,,,A*4D
$GPGGA,075136.000,3351.8711,S,15112.5882,E,1,13,1.0,50.0,M,0.0,M,,*4B
$GPGSV,4,1,13,01,23,250,42,02,70,348,41,03,19,222,45,04,10,290,18*7F
$GPGSV,4,2,13,05,45,130,48,06,79,164,42,07,74,283,48,08,25,167,32*75
$GPGSV,4,3,13,09,21,075,32,10,41,341,45,11,44,193,13,12,67,281,16*71
$GPGSV,4,4,13,13,64,016,44,,,,,,,,,,,,*4C
$GPRMC,075136.000,A,3351.8711,S,15112.5882,E,0.00,0.0,031225,,,A*48
$GPGGA,075138.000,3351.8704,S,15112.5641,E,1,08,1.0,50.0,M,0.0,M,,*4A
$GPGSV,2,1,08,01,16,231,42,02,61,225,43,03,52,035,47,04,57,206,38*7D
$GPGSV,2,2,08,05,17,284,16,06,59,052,38,07,35,247,38,08,65,283,11*74
$GPRMC,075138.000,A,3351.8704,S,15112.5641,E,0.00,0.0,031225,,,A*43
$GPGGA,075140.000,3351.8847,S,15112.5951,E,1,09,1.0,50.0,M,0.0,M,,*42
$GPGSV,3,1,09,01,51,278,42,02,55,167,31,03,11,178,37,04,41,276,15*73
$GPGSV,3,2,09,05,70,008,49,06,76,163,46,07,31,112,46,08,25,024,36*7E
$GPGSV,3,3,09,09,69,191,43,,,,,,,,,,,,*48
$GPRMC,075140.000,A,3351.8847,S,15112.5951,E,0.00,0.0,031225,,,A*4A
$GPGGA,075142.000,3351.9133,S,15112.6016,E,1,13,1.0,50.0,M,0.0,M,,*49
$GPGSV,4,1,13,01,27,347,35,02,77,116,30,03,62,219,39,04,15,161,48*76
$GPGSV,4,2,13,05,51,198,31,06,73,094,40,07,27,274,13,08,66,292,36*70
$GPGSV,4,3,13,09,55,304,33,10,43,114,47,11,73,073,38,12,37,349,46*73
$GPGSV,4,4,13,13,49,293,42,,,,,,,,,,,,*4A
$GPRMC,075142.000,A,3351.9133,S,15112.6016,E,0.00,0.0,031225,,,A*4A
$GPGGA,075144.000,3351.9162,S,15112.5629,E,1,11,1.0,50.0,M,0.0,M,,*40
$GPGSV,3,1,11,01,38,343,50,02,50,258,36,03,41,108,18,04,31,130,40*7B
$GPGSV,3,2,11,05,49,159,43,06,31,151,36,07,41,032,38,08,53,215,41*7B
$GPGSV,3,3,11,09,74,293,17,10,74,294,37,11,10,043,34,,,,*45
$GPRMC,075144.000,A,3351.9162,S,15112.5629,E,0.00,0.0,031225,,,A*41
$GPGGA,075146.000,3351.8489,S,15112.6284,E,1,13,1.0,50.0,M,0.0,M,,*41
$GPGSV,4,1,13,01,46,346,39,02,52,084,35,03,28,110,49,04,18,321,50*75
$GPGSV,4,2,13,05,41,149,42,06,10,085,50,07,24,159,30,08,49,161,19*7C
$GPGSV,4,3,13,09,27,094,42,10,56,015,35,11,44,159,34,12,77,189,31*70
$GPGSV,4,4,13,13,67,151,41,,,,,,,,,,,,*48
$GPRMC,075146.000,A,3351.8489,S,15112.6284,E,0.00,0.0,031225,,,A*42
$GPGGA,075148.000,3351.9183,S,15112.5517,E,1,08,1.0,50.0,M,0.0,M,,*45
$GPGSV,2,1,08,01,30,021,10,02,27,093,12,03,63,325,35,04,14,062,45*7C
$GPGSV,2,2,08,05,15,321,37,06,67,140,34,07,29,232,11,08,63,242,38*7C
$GPRMC,075148.000,A,3351.9183,S,15112.5517,E,0.00,0.0,031225,,,A*4C
$GPGGA,075150.000,3351.9062,S,15112.5993,E,1,12,1.0,50.0,M,0.0,M,,*49
$GPGSV,3,1,12,01,38,024,41,02,75,194,40,03,45,196,44,04,69,247,46*7D
$GPGSV,3,2,12,05,37,148,41,06,30,357,41,07,56,014,44,08,35,352,30*7B
$GPGSV,3,3,12,09,40,330,42,10,71,309,44,11,35,324,50,12,11,138,44*73
$GPRMC,075150.000,A,3351.9062,S,15112.5993,E,0.00,0.0,031225,,,A*4B
$GPGGA,075152.000,3351.8663,S,15112.5770,E,1,14,1.0,50.0,M,0.0,M,,*48
$GPGSV,4,1,14,01,52,359,32,02,58,193,48,03,46,289,43,04,48,267,31*75
$GPGSV,4,2,14,05,60,083,35,06,13,111,19,07,21,175,20,08,29,107,20*7B
$GPGSV,4,3,14,09,73,318,41,10,44,016,38,11,64,073,33,12,62,285,34*7D
$GPGSV,4,4,14,13,55,203,13,14,51,093,37,,,,,,,,*72
$GPRMC,075152.000,A,3351.8663,S,15112.5770,E,0.00,0.0,031225,,,A*4C
$GPGGA,075154.000,3351.9626,S,15112.5885,E,1,10,1.0,50.0,M,0.0,M,,*4F
$GPGSV,3,1,10,01,39,082,39,02,78,118,47,03,44,282,34,04,64,320,31*7E
$GPGSV,3,2,10,05,59,069,32,06,79,240,16,07,40,029,34,08,54,203,46*72
$GPGSV,3,3,10,09,52,032,39,10,21,346,32,,,,,,,,*7F
$GPRMC,075154.000,A,3351.9626,S,15112.5885,E,0.00,0.0,031225,,,A*4F
$GPGGA,075156.000,3351.9621,S,15112.6404,E,1,09,1.0,50.0,M,0.0,M,,*44
$GPGSV,3,1,09,01,78,082,47,02,28,232,41,03,23,229,44,04,78,063,48*72
$GPGSV,3,2,09,05,79,158,45,06,73,296,48,07,75,289,42,08,14,037,45*7C
$GPGSV,3,3,09,09,68,057,35,,,,,,,,,,,,*43
$GPRMC,075156.000,A,3351.9621,S,15112.6404,E,0.00,0.0,031225,,,A*4C
$GPGGA,075158.000,3351.9018,S,15112.5617,E,1,08,1.0,50.0,M,0.0,M,,*44
$GPGSV,2,1,08,01,42,143,49,02,64,060,48,03,76,110,31,04,37,291,50*7B
$GPGSV,2,2,08,05,74,359,44,06,77,005,46,07,74,185,32,08,10,160,38*75
$GPRMC,075158.000,A,3351.9018,S,15112.5617,E,0.00,0.0,031225,,,A*4D
$GPGGA,075200.000,3351.9170,S,15112.5618,E,1,11,1.0,50.0,M,0.0,M,,*42
$GPGSV,3,1,11,01,79,316,48,02,44,000,44,03,36,235,30,04,39,009,48*74
$GPGSV,3,2,11,05,34,070,42,06,45,191,37,07,14,343,39,08,40,027,32*75
$GPGSV,3,3,11,09,58,133,30,10,13,198,37,11,27,040,43,,,,*4E
$GPRMC,075200.000,A,3351.9170,S,15112.5618,E,0.00,0.0,031225,,,A*43
$GPGGA,075202.000,3351.9343,S,15112.5450,E,1,12,1.0,50.0,M,0.0,M,,*4F
$GPGSV,3,1,12,01,20,120,41,02,39,238,10,03,27,035,38,04,53,304,13*71
$GPGSV,3,2,12,05,50,027,30,06,73,318,37,07,33,325,48,08,34,106,30*75
$GPGSV,3,3,12,09,33,063,46,10,47,052,44,11,20,326,50,12,42,346,50*70
$GPRMC,075202.000,A,3351.9343,S,15112.5450,E,0.00,0.0,031225,,,A*4D
$GPGGA,075204.000,3351.8555,S,15112.6427,E,1,14,1.0,50.0,M,0.0,M,,*4C
$GPGSV,4,1,14,01,60,115,50,02,60,326,41,03,51,008,48,04,23,266,30*7F
$GPGSV,4,2,14,05,25,017,34,06,41,243,37,07,42,235,39,08,45,078,40*76
$GPGSV,4,3,14,09,80,281,38,10,51,203,32,11,55,156,50,12,80,049,45*7F
$GPGSV,4,4,14,13,40,189,43,14,64,097,50,,,,,,,,*71
$GPRMC,075204.000,A,3351.8555,S,15112.6427,E,0.00,0.0,031225,,,A*48
$GPGGA,075206.000,3351.8565,S,15112.5659,E,1,11,1.0,50.0,M,0.0,M,,*40
$GPGSV,3,1,11,01,46,201,49,02,52,359,36,03,43,182,45,04,22,075,36*74
$GPGSV,3,2,11,05,26,054,34,06,26,310,48,07,60,153,49,08,33,198,40*74
$GPGSV,3,3,11,09,67,217,31,10,32,335,40,11,65,282,41,,,,*48
$GPRMC,075206.000,A,3351.8565,S,15112.5659,E,0.00,0.0,031225,,,A*41
$GPGGA,075208.000,3351.9065,S,15112.5606,E,1,09,1.0,50.0,M,0.0,M,,*49
$GPGSV,3,1,09,01,63,128,43,02,35,128,50,03,23,293,31,04,58,015,47*76
$GPGSV,3,2,09,05,58,314,49,06,47,285,47,07,55,257,47,08,56,282,31*7E
$GPGSV,3,3,09,09,19,211,17,,,,,,,,,,,,*45
$GPRMC,075208.000,A,3351.9065,S,15112.5606,E,0.00,0.0,031225,,,A*41
$GPGGA,075210.000,3351.8687,S,15112.5375,E,1,11,1.0,50.0,M,0.0,M,,*43
$GPGSV,3,1,11,01,11,356,43,02,14,256,50,03,16,248,31,04,12,063,30*77
$GPGSV,3,2,11,05,68,195,38,06,34,089,44,07,79,322,44,08,69,109,33*70
$GPGSV,3,3,11,09,26,342,42,10,77,116,46,11,15,352,50,,,,*47
$GPRMC,075210.000,A,3351.8687,S,15112.5375,E,0.00,0.0,031225,,,A*42
$GPGGA,075212.000,3351.9124,S,15112.5791,E,1,09,1.0,50.0,M,0.0,M,,*49
$GPGSV,3,1,09,01,47,133,37,02,18,252,41,03,72,358,38,04,11,322,49*77
$GPGSV,3,2,09,05,35,162,40,06,30,328,37,07,56,146,15,08,73,021,32*76
$GPGSV,3,3,09,09,49,078,30,,,,,,,,,,,,*48
$GPRMC,075212.000,A,3351.9124,S,15112.5791,E,0.00,0.0,031225,,,A*41
$GPGGA,075214.000,3351.8646,S,15112.6091,E,1,13,1.0,50.0,M,0.0,M,,*42
$GPGSV,4,1,13,01,49,294,50,02,58,304,11,03,53,152,48,04,34,278,20*73
$GPGSV,4,2,13,05,60,183,36,06,27,102,10,07,25,324,42,08,28,037,43*72
$GPGSV,4,3,13,09,20,200,37,10,74,281,17,11,34,319,36,12,50,040,42*73
$GPGSV,4,4,13,13,13,221,42,,,,,,,,,,,,*4C
$GPRMC,075214.000,A,3351.8646,S,15112.6091,E,0.00,0.0,031225,,,A*41
$GPGGA,075216.000,3351.9448,S,15112.6265,E,1,08,1.0,50.0,M,0.0,M,,*4E
$GPGSV,2,1,08,01,80,223,42,02,33,054,49,03,31,330,41,04,77,323,40*76
$GPGSV,2,2,08,05,65,026,14,06,75,050,44,07,57,026,35,08,22,105,17*7A
$GPRMC,075216.000,A,3351.9448,S,15112.6265,E,0.00,0.0,031225,,,A*47
$GPGGA,075218.000,3351.8981,S,15112.5944,E,1,10,1.0,50.0,M,0.0,M,,*4B
$GPGSV,3,1,10,01,50,307,40,02,21,273,32,03,28,192,50,04,53,113,32*7E
$GPGSV,3,2,10,05,17,198,45,06,52,288,39,07,16,265,32,08,79,069,16*7C
$GPGSV,3,3,10,09,23,043,44,10,49,334,33,,,,,,,,*7F
$GPRMC,075218.000,A,3351.8981,S,15112.5944,E,0.00,0.0,031225,,,A*4B
$GPGGA,075220.000,3351.9210,S,15112.6347,E,1,11,1.0,50.0,M,0.0,M,,*49
$GPGSV,3,1,11,01,47,070,47,02,46,000,43,03,34,079,46,04,71,237,43*71
$GPGSV,3,2,11,05,79,058,35,06,50,022,42,07,65,115,11,08,57,134,37*74
$GPGSV,3,3,11,09,22,082,40,10,54,240,40,11,74,310,30,,,,*4E
$GPRMC,075220.000,A,3351.9210,S,15112.6347,E,0.00,0.0,031225,,,A*48
$GPGGA,075222.000,3351.8634,S,15112.5906,E,1,08,1.0,50.0,M,0.0,M,,*4C
$GPGSV,2,1,08,01,22,213,39,02,47,286,15,03,64,033,31,04,80,168,34*77
$GPGSV,2,2,08,05,78,263,11,06,21,047,45,07,20,301,41,08,49,276,48*73
$GPRMC,075222.000,A,3351.8634,S,15112.5906,E,0.00,0.0,031225,,,A*45
$GPGGA,075224.000,3351.9341,S,15112.5459,E,1,08,1.0,50.0,M,0.0,M,,*4B
$GPGSV,2,1,08,01,30,178,30,02,14,052,32,03,59,216,40,04,79,254,33*7B
$GPGSV,2,2,08,05,46,024,32,06,44,297,50,07,54,211,49,08,12,294,40*77
$GPRMC,075224.000,A,3351.9341,S,15112.5459,E,0.00,0.0,031225,,,A*42
$GPGGA,075226.000,3351.9180,S,15112.6010,E,1,09,1.0,50.0,M,0.0,M,,*4D
$GPGSV,3,1,09,01,61,180,32,02,68,333,44,03,29,079,44,04,35,167,50*72
$GPGSV,3,2,09,05,18,082,45,06,78,337,42,07,19,041,45,08,36,043,32*7E
$GPGSV,3,3,09,09,72,042,13,,,,,,,,,,,,*48
$GPRMC,075226.000,A,3351.9180,S,15112.6010,E,0.00,0.0,031225,,,A*45
$GPGGA,075228.000,3351.9317,S,15112.5623,E,1,12,1.0,50.0,M,0.0,M,,*40
$GPGSV,3,1,12,01,58,210,38,02,28,264,31,03,50,319,13,04,69,093,44*78
$GPGSV,3,2,12,05,19,173,44,06,38,213,47,07,22,202,47,08,65,071,37*70
$GPGSV,3,3,12,09,67,215,31,10,30,288,42,11,61,154,43,12,60,170,42*75
$GPRMC,075228.000,A,3351.9317,S,15112.5623,E,0.00,0.0,031225,,,A*42
$GPGGA,075230.000,3351.8975,S,15112.5735,E,1,08,1.0,50.0,M,0.0,M,,*4B
$GPGSV,2,1,08,01,68,119,39,02,13,340,19,03,69,127,50,04,43,191,30*75
$GPGSV,2,2,08,05,24,167,40,06,37,005,48,07,24,167,41,08,19,160,47*7D
$GPRMC,075230.000,A,3351.8975,S,15112.5735,E,0.00,0.0,031225,,,A*42
$GPGGA,075232.000,3351.8751,S,15112.5627,E,1,13,1.0,50.0,M,0.0,M,,*49
$GPGSV,4,1,13,01,71,241,50,02,74,044,32,03,42,115,39,04,76,315,36*76
$GPGSV,4,2,13,05,49,207,17,06,45,159,33,07,11,239,50,08,23,341,30*7A
$GPGSV,4,3,13,09,42,168,37,10,26,333,41,11,80,233,44,12,28,257,44*78
$GPGSV,4,4,13,13,56,294,42,,,,,,,,,,,,*43
$GPRMC,075232.000,A,3351.8751,S,15112.5627,E,0.00,0.0,031225,,,A*4A
$GPGGA,075234.000,3351.9141,S,15112.6306,E,1,09,1.0,50.0,M,0.0,M,,*47
$GPGSV,3,1,09,01,27,348,36,02,23,211,10,03,23,000,30,04,28,264,41*76
$GPGSV,3,2,09,05,24,141,48,06,67,113,43,07,21,315,44,08,80,031,44*78
$GPGSV,3,3,09,09,46,325,47,,,,,,,,,,,,*4C
$GPRMC,075234.000,A,3351.9141,S,15112.6306,E,0.00,0.0,031225,,,A*4F
$GPGGA,075236.000,3351.8533,S,15112.5719,E,1,09,1.0,50.0,M,0.0,M,,*4C
$GPGSV,3,1,09,01,41,060,34,02,31,188,30,03,32,223,48,04,54,346,31*7E
$GPGSV,3,2,09,05,47,256,20,06,79,125,42,07,22,104,50,08,41,040,36*77
$GPGSV,3,3,09,09,63,024,50,,,,,,,,,,,,*4F
$GPRMC,075236.000,A,3351.8533,S,15112.5719,E,0.00,0.0,031225,,,A*44
$GPGGA,075238.000,3351.9298,S,15112.5793,E,1,10,1.0,50.0,M,0.0,M,,*4F
$GPGSV,3,1,10,01,20,267,47,02,20,008,34,03,68,078,50,04,20,063,31*70
$GPGSV,3,2,10,05,13,129,37,06,13,177,32,07,41,351,39,08,15,013,35*73
$GPGSV,3,3,10,09,48,325,47,10,29,349,48,,,,,,,,*72
$GPRMC,075238.000,A,3351.9298,S,15112.5793,E,0.00,0.0,031225,,,A*4F
$GPGGA,075240.000,3351.9007,S,15112.5458,E,1,12,1.0,50.0,M,0.0,M,,*42
$GPGSV,3,1,12,01,67,078,41,02,65,292,35,03,56,302,35,04,42,168,48*7A
$GPGSV,3,2,12,05,30,084,37,06,33,092,46,07,51,071,33,08,51,183,33*79
$GPGSV,3,3,12,09,30,001,44,10,68,085,31,11,51,154,46,12,41,148,30*7F
$GPRMC,075240.000,A,3351.9007,S,15112.5458,E,0.00,0.0,031225,,,A*40
$GPGGA,075242.000,3351.9173,S,15112.6483,E,1,09,1.0,50.0,M,0.0,M,,*4D
$GPGSV,3,1,09,01,30,275,48,02,73,092,32,03,42,059,44,04,23,194,31*72
$GPGSV,3,2,09,05,11,083,19,06,40,146,38,07,76,078,41,08,23,145,36*7D
$GPGSV,3,3,09,09,60,070,48,,,,,,,,,,,,*44
$GPRMC,075242.000,A,3351.9173,S,15112.6483,E,0.00,0.0,031225,,,A*45
$GPGGA,075244.000,3351.8986,S,15112.5515,E,1,08,1.0,50.0,M,0.0,M,,*44
$GPGSV,2,1,08,01,62,075,49,02,46,218,15,03,51,101,49,04,40,079,40*77
$GPGSV,2,2,08,05,21,208,12,06,10,311,31,07,11,302,49,08,35,160,43*7D
$GPRMC,075244.000,A,3351.8986,S,15112.5515,E,0.00,0.0,031225,,,A*4D
$GPGGA,075246.000,3351.8956,S,15112.5722,E,1,08,1.0,50.0,M,0.0,M,,*4D
$GPGSV,2,1,08,01,60,224,34,02,79,198,34,03,70,012,38,04,11,060,42*75
$GPGSV,2,2,08,05,12,127,40,06,51,126,20,07,72,336,47,08,14,057,35*7C
$GPRMC,075246.000,A,3351.8956,S,15112.5722,E,0.00,0.0,031225,,,A*44
$GPGGA,075248.000,3351.8885,S,15112.6235,E,1,14,1.0,50.0,M,0.0,M,,*41
$GPGSV,4,1,14,01,46,148,43,02,28,143,16,03,25,059,41,04,61,211,37*71
$GPGSV,4,2,14,05,17,184,37,06,22,088,47,07,71,261,30,08,34,117,43*7D
$GPGSV,4,3,14,09,28,242,20,10,77,012,15,11,50,345,33,12,76,311,45*7F
$GPGSV,4,4,14,13,44,301,31,14,37,031,44,,,,,,,,*7D
$GPRMC,075248.000,A,3351.8885,S,15112.6235,E,0.00,0.0,031225,,,A*45
$GPGGA,075250.000,3351.8729,S,15112.5531,E,1,09,1.0,50.0,M,0.0,M,,*4D
$GPGSV,3,1,09,01,44,175,18,02,60,348,34,03,34,188,43,04,13,215,35*71
$GPGSV,3,2,09,05,65,277,46,06,75,117,36,07,58,271,31,08,39,253,37*7F
$GPGSV,3,3,09,09,13,317,12,,,,,,,,,,,,*4D
$GPRMC,075250.000,A,3351.8729,S,15112.5531,E,0.00,0.0,031225,,,A*45
$GPGGA,075252.000,3351.8858,S,15112.6346,E,1,12,1.0,50.0,M,0.0,M,,*49
$GPGSV,3,1,12,01,61,070,47,02,13,087,35,03,29,228,40,04,62,023,35*70
$GPGSV,3,2,12,05,32,090,15,06,22,114,11,07,15,010,49,08,16,317,34*72
$GPGSV,3,3,12,09,18,285,42,10,26,145,31,11,52,136,17,12,45,220,30*70
$GPRMC,075252.000,A,3351.8858,S,15112.6346,E,0.00,0.0,031225,,,A*4B
$GPGGA,075254.000,3351.9055,S,15112.6496,E,1,09,1.0,50.0,M,0.0,M,,*4B
$GPGSV,3,1,09,01,43,270,37,02,17,120,12,03,35,027,16,04,66,294,44*7D
$GPGSV,3,2,09,05,12,082,15,06,62,312,50,07,76,007,49,08,10,106,46*7E
$GPGSV,3,3,09,09,15,086,48,,,,,,,,,,,,*4F
$GPRMC,075254.000,A,3351.9055,S,15112.6496,E,0.00,0.0,031225,,,A*43
$GPGGA,075256.000,3351.9170,S,15112.5601,E,1,11,1.0,50.0,M,0.0,M,,*49
$GPGSV,3,1,11,01,22,314,48,02,79,116,34,03,78,315,30,04,13,200,19*79
$GPGSV,3,2,11,05,58,224,49,06,35,132,47,07,67,082,31,08,71,063,44*7F
$GPGSV,3,3,11,09,47,063,44,10,11,300,13,11,27,061,30,,,,*47
$GPRMC,075256.000,A,3351.9170,S,15112.5601,E,0.00,0.0,031225,,,A*48
$GPGGA,075258.000,3351.8809,S,15112.6266,E,1,14,1.0,50.0,M,0.0,M,,*42
$GPGSV,4,1,14,01,27,029,46,02,40,125,31,03,35,259,46,04,14,323,33*7C
$GPGSV,4,2,14,05,55,066,31,06,21,093,30,07,62,212,42,08,47,283,41*72
$GPGSV,4,3,14,09,30,295,49,10,67,196,15,11,19,040,34,12,76,322,38*79
$GPGSV,4,4,14,13,56,171,45,14,28,212,36,,,,,,,,*70
$GPRMC,075258.000,A,3351.8809,S,15112.6266,E,0.00,0.0,031225,,,A*46
$GPGGA,075300.000,3351.9464,S,15112.6189,E,1,12,1.0,50.0,M,0.0,M,,*4C
$GPGSV,3,1,12,01,43,281,49,02,18,225,42,03,43,154,44,04,58,199,42*7A
$GPGSV,3,2,12,05,49,043,16,06,65,239,39,07,26,354,39,08,80,202,35*79
$GPGSV,3,3,12,09,25,031,42,10,41,086,11,11,25,142,30,12,38,272,48*7A
$GPRMC,075300.000,A,3351.9464,S,15112.6189,E,0.00,0.0,031225,,,A*4E
$GPGGA,075302.000,3351.8905,S,15112.5989,E,1,09,1.0,50.0,M,0.0,M,,*44
$GPGSV,3,1,09,01,28,190,49,02,63,108,41,03,72,312,34,04,30,032,42*76
$GPGSV,3,2,09,05,78,344,50,06,21,297,43,07,10,328,33,08,51,211,42*74
$GPGSV,3,3,09,09,44,262,34,,,,,,,,,,,,*48
$GPRMC,075302.000,A,3351.8905,S,15112.5989,E,0.00,0.0,031225,,,A*4C
$GPGGA,075304.000,3351.9585,S,15112.5675,E,1,14,1.0,50.0,M,0.0,M,,*47
$GPGSV,4,1,14,01,45,086,47,02,60,083,46,03,41,288,33,04,64,158,38*7C
$GPGSV,4,2,14,05,63,196,46,06,35,031,40,07,18,172,36,08,80,132,30*7C
$GPGSV,4,3,14,09,61,068,41,10,57,030,44,11,78,224,46,12,62,317,41*70
$GPGSV,4,4,14,13,42,155,44,14,33,110,49,,,,,,,,*71
$GPRMC,075304.000,A,3351.9585,S,15112.5675,E,0.00,0.0,031225,,,A*43
$GPGGA,075306.000,3351.9037,S,15112.5447,E,1,11,1.0,50.0,M,0.0,M,,*4F
$GPGSV,3,1,11,01,69,353,44,02,46,081,50,03,46,327,50,04,72,179,45*71
$GPGSV,3,2,11,05,71,283,40,06,43,080,34,07,68,137,32,08,39,346,43*71
$GPGSV,3,3,11,09,33,270,30,10,68,346,42,11,76,190,38,,,,*4C
$GPRMC,075306.000,A,3351.9037,S,15112.5447,E,0.00,0.0,031225,,,A*4E
$GPGGA,075308.000,3351.8508,S,15112.6246,E,1,13,1.0,50.0,M,0.0,M,,*4F
$GPGSV,4,1,13,01,49,341,39,02,44,255,42,03,49,296,36,04,57,335,31*7F
$GPGSV,4,2,13,05,12,011,36,06,46,038,35,07,66,109,31,08,62,074,34*72
$GPGSV,4,3,13,09,38,184,40,10,18,229,11,11,35,335,44,12,52,087,10*7F
$GPGSV,4,4,13,13,14,231,35,,,,,,,,,,,,*4A
$GPRMC,075308.000,A,3351.8508,S,15112.6246,E,0.00,0.0,031225,,,A*4C
$GPGGA,075310.000,3351.9350,S,15112.5981,E,1,14,1.0,50.0,M,0.0,M,,*48
$GPGSV,4,1,14,01,51,318,42,02,27,034,38,03,72,319,41,04,40,261,44*76
$GPGSV,4,2,14,05,80,223,14,06,11,301,13,07,58,048,37,08,72,334,31*7E
$GPGSV,4,3,14,09,77,085,44,10,37,357,39,11,72,034,42,12,61,069,44*7E
$GPGSV,4,4,14,13,62,325,36,14,71,349,47,,,,,,,,*75
$GPRMC,075310.000,A,3351.9350,S,15112.5981,E,0.00,0.0,031225,,,A*4C
$GPGGA,075312.000,3351.8969,S,15112.5500,E,1,13,1.0,50.0,M,0.0,M,,*49
$GPGSV,4,1,13,01,39,275,39,02,40,043,34,03,75,097,32,04,14,335,49*7E
$GPGSV,4,2,13,05,61,292,10,06,19,255,49,07,31,060,12,08,14,274,49*77
$GPGSV,4,3,13,09,34,175,39,10,41,184,47,11,74,318,31,12,60,081,40*72
$GPGSV,4,4,13,13,20,343,40,,,,,,,,,,,,*4B
$GPRMC,075312.000,A,3351.8969,S,15112.5500,E,0.00,0.0,031225,,,A*4A
$GPGGA,075314.000,3351.9604,S,15112.6049,E,1,08,1.0,50.0,M,0.0,M,,*4B
$GPGSV,2,1,08,01,20,004,46,02,77,108,40,03,46,233,44,04,70,001,31*7B
$GPGSV,2,2,08,05,51,253,38,06,74,005,49,07,24,181,49,08,66,176,48*72
$GPRMC,075314.000,A,3351.9604,S,15112.6049,E,0.00,0.0,031225,,,A*42
$GPGGA,075316.000,3351.8513,S,15112.6539,E,1,14,1.0,50.0,M,0.0,M,,*42
$GPGSV,4,1,14,01,34,141,38,02,54,024,47,03,73,163,36,04,75,090,46*7D
$GPGSV,4,2,14,05,77,135,20,06,78,344,47,07,13,036,49,08,66,039,49*71
$GPGSV,4,3,14,09,71,253,48,10,16,268,47,11,16,257,41,12,69,044,50*7E
$GPGSV,4,4,14,13,45,151,42,14,27,260,18,,,,,,,,*71
$GPRMC,075316.000,A,3351.8513,S,15112.6539,E,0.00,0.0,031225,,,A*46
$GPGGA,075318.000,3351.9133,S,15112.5511,E,1,14,1.0,50.0,M,0.0,M,,*42
$GPGSV,4,1,14,01,30,048,41,02,47,220,38,03,52,292,39,04,43,108,37*71
$GPGSV,4,2,14,05,15,205,41,06,18,265,45,07,55,060,37,08,24,283,41*71
$GPGSV,4,3,14,09,41,196,47,10,27,211,38,11,65,010,44,12,15,219,36*7D
$GPGSV,4,4,14,13,44,273,38,14,76,035,33,,,,,,,,*71
$GPRMC,075318.000,A,3351.9133,S,15112.5511,E,0.00,0.0,031225,,,A*46
$GPGGA,075320.000,3351.9154,S,15112.5851,E,1,08,1.0,50.0,M,0.0,M,,*4C
$GPGSV,2,1,08,01,35,267,43,02,53,215,34,03,31,051,42,04,43,039,32*7F
$GPGSV,2,2,08,05,58,276,34,06,39,201,50,07,40,228,39,08,49,093,19*71
$GPRMC,075320.000,A,3351.9154,S,15112.5851,E,0.00,0.0,031225,,,A*45
$GPGGA,075322.000,3351.9468,S,15112.6001,E,1,08,1.0,50.0,M,0.0,M,,*4A
$GPGSV,2,1,08,01,19,346,47,02,12,050,32,03,52,049,34,04,14,180,43*7D
$GPGSV,2,2,08,05,27,036,32,06,41,170,47,07,14,134,32,08,76,078,37*74
$GPRMC,075322.000,A,3351.9468,S,15112.6001,E,0.00,0.0,031225,,,A*43
$GPGGA,075324.000,3351.9638,S,15112.6309,E,1,08,1.0,50.0,M,0.0,M,,*40
$GPGSV,2,1,08,01,30,315,41,02,15,086,50,03,51,280,17,04,27,022,32*74
$GPGSV,2,2,08,05,73,013,30,06,33,331,42,07,14,023,44,08,21,011,41*7D
$GPRMC,075324.000,A,3351.9638,S,15112.6309,E,0.00,0.0,031225,,,A*49
$GPGGA,075326.000,3351.8795,S,15112.5376,E,1,14,1.0,50.0,M,0.0,M,,*43
$GPGSV,4,1,14,01,65,353,44,02,49,332,46,03,66,311,42,04,63,169,49*75
$GPGSV,4,2,14,05,73,079,41,06,39,247,41,07,72,065,40,08,58,049,36*70
$GPGSV,4,3,14,09,61,304,49,10,48,041,48,11,54,130,34,12,23,126,36*7D
$GPGSV,4,4,14,13,47,241,36,14,70,004,47,,,,,,,,*7A
$GPRMC,075326.000,A,3351.8795,S,15112.5376,E,0.00,0.0,031225,,,A*47
$GPGGA,075328.000,3351.8490,S,15112.5931,E,1,12,1.0,50.0,M,0.0,M,,*44
$GPGSV,3,1,12,01,67,060,46,02,47,059,14,03,60,089,50,04,26,217,45*70
$GPGSV,3,2,12,05,18,252,43,06,70,044,33,07,60,049,42,08,27,245,36*75
$GPGSV,3,3,12,09,46,062,49,10,65,307,42,11,24,277,16,12,13,343,30*7D
$GPRMC,075328.000,A,3351.8490,S,15112.5931,E,0.00,0.0,031225,,,A*46
$GPGGA,075330.000,3351.9180,S,15112.5985,E,1,12,1.0,50.0,M,0.0,M,,*47
$GPGSV,3,1,12,01,52,268,48,02,38,213,35,03,21,228,42,04,48,041,20*70
$GPGSV,3,2,12,05,23,002,47,06,10,232,49,07,47,198,37,08,35,023,48*74
$GPGSV,3,3,12,09,69,226,34,10,13,100,35,11,79,161,34,12,80,287,45*71
$GPRMC,075330.000,A,3351.9180,S,15112.5985,E,0.00,0.0,031225,,,A*45
$GPGGA,075332.000,3351.9458,S,15112.5393,E,1,14,1.0,50.0,M,0.0,M,,*4E
$GPGSV,4,1,14,01,32,176,43,02,56,210,43,03,46,173,43,04,17,187,39*7E
$GPGSV,4,2,14,05,17,298,45,06,50,021,47,07,73,326,31,08,42,282,31*7A
$GPGSV,4,3,14,09,20,243,42,10,54,150,34,11,48,278,20,12,21,061,31*76
$GPGSV,4,4,14,13,21,111,19,14,16,340,31,,,,,,,,*73
$GPRMC,075332.000,A,3351.9458,S,15112.5393,E,0.00,0.0,031225,,,A*4A
$GPGGA,075334.000,3351.9648,S,15112.6079,E,1,11,1.0,50.0,M,0.0,M,,*4A
$GPGSV,3,1,11,01,48,307,11,02,46,233,30,03,27,280,33,04,25,165,46*7C
$GPGSV,3,2,11,05,22,311,46,06,56,139,38,07,57,177,17,08,11,343,31*75
$GPGSV,3,3,11,09,48,107,10,10,63,251,33,11,55,132,50,,,,*4C
$GPRMC,075334.000,A,3351.9648,S,15112.6079,E,0.00,0.0,031225,,,A*4B
$GPGGA,075336.000,3351.9613,S,15112.5677,E,1,09,1.0,50.0,M,0.0,M,,*44
$GPGSV,3,1,09,01,63,299,31,02,53,212,47,03,42,170,37,04,24,064,32*76
$GPGSV,3,2,09,05,34,352,47,06,72,050,47,07,66,276,46,08,47,122,38*76
$GPGSV,3,3,09,09,68,233,30,,,,,,,,,,,,*46
$GPRMC,075336.000,A,3351.9613,S,15112.5677,E,0.00,0.0,031225,,,A*4C
$GPGGA,075338.000,3351.8938,S,15112.6468,E,1,13,1.0,50.0,M,0.0,M,,*49
$GPGSV,4,1,13,01,52,082,32,02,77,185,34,03,66,137,11,04,66,148,38*7E
$GPGSV,4,2,13,05,69,282,32,06,56,245,45,07,47,203,39,08,20,102,35*79
$GPGSV,4,3,13,09,10,104,39,10,74,014,49,11,70,054,45,12,32,332,39*7C
$GPGSV,4,4,13,13,34,098,42,,,,,,,,,,,,*49
$GPRMC,075338.000,A,3351.8938,S,15112.6468,E,0.00,0.0,031225,,,A*4A
$GPGGA,075340.000,3351.9016,S,15112.6487,E,1,13,1.0,50.0,M,0.0,M,,*43
$GPGSV,4,1,13,01,27,002,30,02,68,076,31,03,34,253,43,04,22,174,39*7F
$GPGSV,4,2,13,05,74,224,37,06,16,052,37,07,52,061,37,08,66,023,47*70
$GPGSV,4,3,13,09,25,018,50,10,56,012,48,11,53,015,44,12,21,072,38*7F
$GPGSV,4,4,13,13,16,325,45,,,,,,,,,,,,*4B
$GPRMC,075340.000,A,3351.9016,S,15112.6487,E,0.00,0.0,031225,,,A*40
$GPGGA,075342.000,3351.8574,S,15112.5802,E,1,11,1.0,50.0,M,0.0,M,,*41
$GPGSV,3,1,11,01,13,235,34,02,37,247,32,03,58,158,34,04,37,300,35*7D
$GPGSV,3,2,11,05,80,180,38,06,29,248,32,07,30,135,36,08,67,035,34*7B
$GPGSV,3,3,11,09,69,110,49,10,33,195,38,11,75,191,48,,,,*42
$GPRMC,075342.000,A,3351.8574,S,15112.5802,E,0.00,0.0,031225,,,A*40
$GPGGA,075344.000,3351.9101,S,15112.5644,E,1,11,1.0,50.0,M,0.0,M,,*4C
$GPGSV,3,1,11,01,33,321,41,02,53,128,43,03,74,091,17,04,10,282,40*70
$GPGSV,3,2,11,05,33,242,31,06,50,214,48,07,16,277,34,08,31,085,50*74
$GPGSV,3,3,11,09,49,141,48,10,45,210,42,11,41,026,40,,,,*45
$GPRMC,075344.000,A,3351.9101,S,15112.5644,E,0.00,0.0,031225,,,A*4D
$GPGGA,075346.000,3351.8763,S,15112.5891,E,1,08,1.0,50.0,M,0.0,M,,*43
$GPGSV,2,1,08,01,66,278,42,02,44,153,50,03,41,134,35,04,78,107,42*75
$GPGSV,2,2,08,05,32,312,48,06,67,050,19,07,47,111,46,08,79,344,39*7B
$GPRMC,075346.000,A,3351.8763,S,15112.5891,E,0.00,0.0,031225,,,A*4A
$GPGGA,075348.000,3351.9316,S,15112.5523,E,1,08,1.0,50.0,M,0.0,M,,*4E
$GPGSV,2,1,08,01,67,114,13,02,79,312,34,03,77,335,46,04,46,352,37*7D
$GPGSV,2,2,08,05,58,218,37,06,80,290,39,07,55,159,41,08,67,197,42*76
$GPRMC,075348.000,A,3351.9316,S,15112.5523,E,0.00,0.0,031225,,,A*47
$GPGGA,075350.000,3351.9624,S,15112.6256,E,1,12,1.0,50.0,M,0.0,M,,*4E
$GPGSV,3,1,12,01,39,178,35,02,70,244,15,03,43,039,32,04,62,092,41*79
$GPGSV,3,2,12,05,42,186,15,06,40,188,35,07,46,159,39,08,79,229,37*7F
$GPGSV,3,3,12,09,30,341,36,10,34,140,39,11,33,294,50,12,39,227,19*76
$GPRMC,075350.000,A,3351.9624,S,15112.6256,E,0.00,0.0,031225,,,A*4C
$GPGGA,075352.000,3351.9526,S,15112.5720,E,1,14,1.0,50.0,M,0.0,M,,*4C
$GPGSV,4,1,14,01,75,221,30,02,20,135,44,03,48,115,31,04,23,336,12*77
$GPGSV,4,2,14,05,23,193,32,06,76,308,42,07,62,142,45,08,79,285,31*70
$GPGSV,4,3,14,09,14,045,30,10,78,057,46,11,25,301,50,12,10,069,44*76
$GPGSV,4,4,14,13,47,198,33,14,23,199,10,,,,,,,,*79
$GPRMC,075352.000,A,3351.9526,S,15112.5720,E,0.00,0.0,031225,,,A*48
$GPGGA,075354.000,3351.8975,S,15112.6042,E,1,09,1.0,50.0,M,0.0,M,,*4D
$GPGSV,3,1,09,01,41,349,42,02,37,169,35,03,77,114,50,04,36,235,42*71
$GPGSV,3,2,09,05,54,204,47,06,66,047,48,07,56,068,42,08,20,016,44*78
$GPGSV,3,3,09,09,24,346,41,,,,,,,,,,,,*4B
$GPRMC,075354.000,A,3351.8975,S,15112.6042,E,0.00,0.0,031225,,,A*45
$GPGGA,075356.000,3351.9514,S,15112.5389,E,1,14,1.0,50.0,M,0.0,M,,*4E
$GPGSV,4,1,14,01,62,071,41,02,40,259,36,03,11,225,11,04,26,169,41*7F
$GPGSV,4,2,14,05,49,264,36,06,10,162,42,07,62,155,38,08,11,089,35*75
$GPGSV,4,3,14,09,19,349,44,10,42,166,41,11,67,182,39,12,22,204,41*77
$GPGSV,4,4,14,13,19,180,37,14,21,227,48,,,,,,,,*76
$GPRMC,075356.000,A,3351.9514,S,15112.5389,E,0.00,0.0,031225,,,A*4A
$GPGGA,075358.000,3351.8894,S,15112.6488,E,1,10,1.0,50.0,M,0.0,M,,*45
$GPGSV,3,1,10,01,29,078,35,02,71,200,32,03,25,254,48,04,36,189,49*79
$GPGSV,3,2,10,05,77,139,39,06,20,235,15,07,27,079,11,08,80,002,38*7C
$GPGSV,3,3,10,09,41,296,42,10,40,107,37,,,,,,,,*78
$GPRMC,075358.000,A,3351.8894,S,15112.6488,E,0.00,0.0,031225,,,A*45
$GPGGA,075400.000,3351.9456,S,15112.5837,E,1,09,1.0,50.0,M,0.0,M,,*4F
$GPGSV,3,1,09,01,73,145,36,02,71,083,48,03,38,272,45,04,46,054,48*74
$GPGSV,3,2,09,05,22,166,44,06,30,298,34,07,10,181,32,08,57,077,19*79
$GPGSV,3,3,09,09,75,212,40,,,,,,,,,,,,*4E
$GPRMC,075400.000,A,3351.9456,S,15112.5837,E,0.00,0.0,031225,,,A*47
$GPGGA,075402.000,3351.9377,S,15112.5481,E,1,14,1.0,50.0,M,0.0,M,,*44
$GPGSV,4,1,14,01,69,020,31,02,18,331,46,03,15,244,45,04,25,278,50*70
$GPGSV,4,2,14,05,70,143,50,06,71,337,43,07,45,301,45,08,46,187,11*7A
$GPGSV,4,3,14,09,66,317,33,10,17,295,48,11,53,337,48,12,28,322,47*76
$GPGSV,4,4,14,13,80,118,12,14,47,042,36,,,,,,,,*78
$GPRMC,075402.000,A,3351.9377,S,15112.5481,E,0.00,0.0,031225,,,A*40
$GPGGA,075404.000,3351.8591,S,15112.5445,E,1,14,1.0,50.0,M,0.0,M,,*45
$GPGSV,4,1,14,01,70,158,32,02,76,218,30,03,35,221,46,04,11,073,39*75
$GPGSV,4,2,14,05,39,346,10,06,67,215,43,07,38,323,37,08,21,195,32*7E
$GPGSV,4,3,14,09,45,205,35,10,46,256,31,11,78,284,35,12,26,189,45*73
$GPGSV,4,4,14,13,47,308,47,14,29,027,31,,,,,,,,*7C
